{"type": "FeatureCollection", "features": [{"type": "Feature", "id": 1, "properties": {"name": "VK7K820", "desc": "八德路二段29號對面"}, "geometry": {"type": "Point", "coordinates": [121.53341200000001, 25.044475]}}, {"type": "Feature", "id": 2, "properties": {"name": "VILPI20", "desc": "仁愛四段-延吉街往東"}, "geometry": {"type": "Point", "coordinates": [121.553964, 25.03752]}}, {"type": "Feature", "id": 3, "properties": {"name": "VINLD61", "desc": "仁愛路三段123巷前槽化島上"}, "geometry": {"type": "Point", "coordinates": [121.54163999999999, 25.038234]}}, {"type": "Feature", "id": 4, "properties": {"name": "VINKW20", "desc": "仁愛路三段47號前槽化島上"}, "geometry": {"type": "Point", "coordinates": [121.53569399999999, 25.038237]}}, {"type": "Feature", "id": 5, "properties": {"name": "VILNY60", "desc": "仁愛路四段345巷"}, "geometry": {"type": "Point", "coordinates": [121.5539278, 25.03783889]}}, {"type": "Feature", "id": 6, "properties": {"name": "VINM760", "desc": "仁愛路四段27巷前槽化島上"}, "geometry": {"type": "Point", "coordinates": [121.545019, 25.038122]}}, {"type": "Feature", "id": 7, "properties": {"name": "VJFPW01", "desc": "光復南路151巷口左側人行道上"}, "geometry": {"type": "Point", "coordinates": [121.557557, 25.043149]}}, {"type": "Feature", "id": 8, "properties": {"name": "VJGMT00", "desc": "安和路一段21巷口"}, "geometry": {"type": "Point", "coordinates": [121.549998, 25.039295000000003]}}, {"type": "Feature", "id": 9, "properties": {"name": "VIMNN00", "desc": "安和路一段73號前"}, "geometry": {"type": "Point", "coordinates": [121.55188100000001, 25.036941]}}, {"type": "Feature", "id": 10, "properties": {"name": "VFNNH40", "desc": "石牌路一段164號前"}, "geometry": {"type": "Point", "coordinates": [121.51332099999999, 25.114453]}}, {"type": "Feature", "id": 11, "properties": {"name": "VHLNV00", "desc": "安和路二段40號前"}, "geometry": {"type": "Point", "coordinates": [121.552332, 25.031604]}}, {"type": "Feature", "id": 12, "properties": {"name": "VJFPW60", "desc": "忠孝東-延吉街 往西"}, "geometry": {"type": "Point", "coordinates": [121.553506, 25.041503]}}, {"type": "Feature", "id": 13, "properties": {"name": "VJQJI20", "desc": "忠孝東路二段128號前"}, "geometry": {"type": "Point", "coordinates": [121.53065, 25.042733]}}, {"type": "Feature", "id": 14, "properties": {"name": "VJHKR21", "desc": "忠孝東路三段174號前"}, "geometry": {"type": "Point", "coordinates": [121.538404, 25.041577]}}, {"type": "Feature", "id": 15, "properties": {"name": "VJGNY60", "desc": "忠孝東路四段235號前"}, "geometry": {"type": "Point", "coordinates": [121.5537111, 25.04154722]}}, {"type": "Feature", "id": 16, "properties": {"name": "V12C2E0", "desc": "忠孝東路出口匝道"}, "geometry": {"type": "Point", "coordinates": [121.53638400000001, 25.044302]}}, {"type": "Feature", "id": 17, "properties": {"name": "VF9KB60", "desc": "辛亥路1段139巷公園前"}, "geometry": {"type": "Point", "coordinates": [121.532575, 25.022683999999998]}}, {"type": "Feature", "id": 18, "properties": {"name": "VF9KB20", "desc": "辛亥路1段大學公園前(溫州街46巷向東)"}, "geometry": {"type": "Point", "coordinates": [121.532552, 25.021908]}}, {"type": "Feature", "id": 19, "properties": {"name": "VF9KW60", "desc": "辛亥路2段129號對面槽化島上"}, "geometry": {"type": "Point", "coordinates": [121.539247, 25.021297]}}, {"type": "Feature", "id": 20, "properties": {"name": "VEFMN60", "desc": "辛亥路3段117號前"}, "geometry": {"type": "Point", "coordinates": [121.54836100000001, 25.016379]}}, {"type": "Feature", "id": 21, "properties": {"name": "VEWM560", "desc": "辛亥路3段台大工程研究所旁"}, "geometry": {"type": "Point", "coordinates": [121.545, 25.020382]}}, {"type": "Feature", "id": 22, "properties": {"name": "VEFMN20", "desc": "辛亥路3段司法官訓練所前槽化島上"}, "geometry": {"type": "Point", "coordinates": [121.546581, 25.019582]}}, {"type": "Feature", "id": 23, "properties": {"name": "VDYN960", "desc": "辛亥路3段芳蘭路往東約150公尺處"}, "geometry": {"type": "Point", "coordinates": [121.549549, 25.016384]}}, {"type": "Feature", "id": 24, "properties": {"name": "VF9NH00", "desc": "基隆路二段228-1號前"}, "geometry": {"type": "Point", "coordinates": [121.55082, 25.023475]}}, {"type": "Feature", "id": 25, "properties": {"name": "VCZLY20", "desc": "基隆路三段155巷口右側"}, "geometry": {"type": "Point", "coordinates": [121.54251200000002, 25.015823]}}, {"type": "Feature", "id": 26, "properties": {"name": "VEFMN40", "desc": "基隆路三段30巷口"}, "geometry": {"type": "Point", "coordinates": [121.54543799999999, 25.018701]}}, {"type": "Feature", "id": 27, "properties": {"name": "VCPKT40", "desc": "基隆路四段144巷50弄口右側"}, "geometry": {"type": "Point", "coordinates": [121.53923300000001, 25.013479]}}, {"type": "Feature", "id": 28, "properties": {"name": "VCPKT00", "desc": "基隆路四段75號(台電大門左側)"}, "geometry": {"type": "Point", "coordinates": [121.53891200000001, 25.012748000000002]}}, {"type": "Feature", "id": 29, "properties": {"name": "VEVIV40", "desc": "羅斯福路三段149號前"}, "geometry": {"type": "Point", "coordinates": [121.52708100000001, 25.021656]}}, {"type": "Feature", "id": 30, "properties": {"name": "VDTJW00", "desc": "羅斯福路四段85號前"}, "geometry": {"type": "Point", "coordinates": [121.536327, 25.012857]}}, {"type": "Feature", "id": 31, "properties": {"name": "VEFM0C0", "desc": "匝道出口處與平面銜接處"}, "geometry": {"type": "Point", "coordinates": [121.548331, 25.02083]}}, {"type": "Feature", "id": 32, "properties": {"name": "VEWN0C0", "desc": "匝道出口處標誌牌面上"}, "geometry": {"type": "Point", "coordinates": [121.548331, 25.02083]}}, {"type": "Feature", "id": 33, "properties": {"name": "V3330G0", "desc": "汀州路車行地下道入口端"}, "geometry": {"type": "Point", "coordinates": [121.543498, 25.021354000000002]}}, {"type": "Feature", "id": 34, "properties": {"name": "V3311G0", "desc": "辛亥路往西入口匝道"}, "geometry": {"type": "Point", "coordinates": [121.53374199999999, 25.022219]}}, {"type": "Feature", "id": 35, "properties": {"name": "VK8LT20", "desc": "市民大道三段232號對面橋下"}, "geometry": {"type": "Point", "coordinates": [121.541072, 25.044411]}}, {"type": "Feature", "id": 36, "properties": {"name": "VK6L860", "desc": "市民大道三段232號對面橋下"}, "geometry": {"type": "Point", "coordinates": [121.540995, 25.04489]}}, {"type": "Feature", "id": 37, "properties": {"name": "VHFHU00", "desc": "杭州南路二段53-4號對面槽化島上"}, "geometry": {"type": "Point", "coordinates": [121.522828, 25.032803]}}, {"type": "Feature", "id": 38, "properties": {"name": "VHFHV00", "desc": "杭州南路二段67之2號前"}, "geometry": {"type": "Point", "coordinates": [121.52226999999999, 25.029636]}}, {"type": "Feature", "id": 39, "properties": {"name": "VINKW40", "desc": "建國南路一段304巷口"}, "geometry": {"type": "Point", "coordinates": [121.53763500000001, 25.035657]}}, {"type": "Feature", "id": 40, "properties": {"name": "VJ7KV40", "desc": "建國南路一段濟南路營區前(空總側門左側)"}, "geometry": {"type": "Point", "coordinates": [121.53813500000001, 25.03905]}}, {"type": "Feature", "id": 41, "properties": {"name": "VFVKW40", "desc": "建國南路二段市立圖書館前"}, "geometry": {"type": "Point", "coordinates": [121.538082, 25.029137]}}, {"type": "Feature", "id": 42, "properties": {"name": "VJHM700", "desc": "復興南路一段103號前"}, "geometry": {"type": "Point", "coordinates": [121.543747, 25.044085]}}, {"type": "Feature", "id": 43, "properties": {"name": "VEWM500", "desc": "復興南路二段345號前"}, "geometry": {"type": "Point", "coordinates": [121.543299, 25.023457999999998]}}, {"type": "Feature", "id": 44, "properties": {"name": "VINJW00", "desc": "新生南路一段149號前"}, "geometry": {"type": "Point", "coordinates": [121.53318600000001, 25.035664]}}, {"type": "Feature", "id": 45, "properties": {"name": "VFYKD00", "desc": "新生南路二段50號前"}, "geometry": {"type": "Point", "coordinates": [121.53402, 25.029269]}}, {"type": "Feature", "id": 46, "properties": {"name": "VFYKD41", "desc": "新生南路二段74號前"}, "geometry": {"type": "Point", "coordinates": [121.53465700000001, 25.027606]}}, {"type": "Feature", "id": 47, "properties": {"name": "VFYKD40", "desc": "新生南路三段12號前"}, "geometry": {"type": "Point", "coordinates": [121.53466499999999, 25.024879000000002]}}, {"type": "Feature", "id": 48, "properties": {"name": "VG6J520", "desc": "和平東路一段129號師大宿舍大樓前"}, "geometry": {"type": "Point", "coordinates": [121.528935, 25.026417000000002]}}, {"type": "Feature", "id": 49, "properties": {"name": "VFQM660", "desc": "和平東路二段134號之4號前"}, "geometry": {"type": "Point", "coordinates": [121.544266, 25.02479]}}, {"type": "Feature", "id": 50, "properties": {"name": "VFTLH60", "desc": "和平東路二段88號前"}, "geometry": {"type": "Point", "coordinates": [121.539353, 25.025223999999998]}}, {"type": "Feature", "id": 51, "properties": {"name": "VEZPT20", "desc": "和平東路三段234號前"}, "geometry": {"type": "Point", "coordinates": [121.554648, 25.022071]}}, {"type": "Feature", "id": 52, "properties": {"name": "VFPMQ20", "desc": "和平東路三段2號前"}, "geometry": {"type": "Point", "coordinates": [121.546663, 25.024619]}}, {"type": "Feature", "id": 53, "properties": {"name": "V03C0G0", "desc": "市高安東西側往西"}, "geometry": {"type": "Point", "coordinates": [121.54114299999999, 25.044691]}}, {"type": "Feature", "id": 54, "properties": {"name": "V03D0G0", "desc": "市高新生西側往西"}, "geometry": {"type": "Point", "coordinates": [121.52618999999999, 25.047444]}}, {"type": "Feature", "id": 55, "properties": {"name": "V1260E0", "desc": "忠孝下與仁愛下匝道"}, "geometry": {"type": "Point", "coordinates": [121.53697199999999, 25.044995]}}, {"type": "Feature", "id": 56, "properties": {"name": "VB5PL40", "desc": "辛亥路4段辛亥捷運站前左側"}, "geometry": {"type": "Point", "coordinates": [121.55741499999999, 25.005187]}}, {"type": "Feature", "id": 57, "properties": {"name": "V1XLD00", "desc": "景美橋(羅斯福路六段景美橋頭)(附掛號誌燈桿)"}, "geometry": {"type": "Point", "coordinates": [121.539491, 24.988605]}}, {"type": "Feature", "id": 58, "properties": {"name": "VB9L800", "desc": "羅斯福路五段206-3號前"}, "geometry": {"type": "Point", "coordinates": [121.53846399999999, 25.003018]}}, {"type": "Feature", "id": 59, "properties": {"name": "V2KLN40", "desc": "羅斯福路六段88號前"}, "geometry": {"type": "Point", "coordinates": [121.540297, 24.998524]}}, {"type": "Feature", "id": 60, "properties": {"name": "V1NMM20", "desc": "木柵路一段68之2號前"}, "geometry": {"type": "Point", "coordinates": [121.54813200000001, 24.987102]}}, {"type": "Feature", "id": 61, "properties": {"name": "V1CRT60", "desc": "木新路2段213號前"}, "geometry": {"type": "Point", "coordinates": [121.567799, 24.983823]}}, {"type": "Feature", "id": 62, "properties": {"name": "VB5PL60", "desc": "辛亥路4段21巷口"}, "geometry": {"type": "Point", "coordinates": [121.55799499999999, 25.008551999999998]}}, {"type": "Feature", "id": 63, "properties": {"name": "V1SNV00", "desc": "辛亥路6段80巷口"}, "geometry": {"type": "Point", "coordinates": [121.55243999999999, 24.98919]}}, {"type": "Feature", "id": 64, "properties": {"name": "V1CPB00", "desc": "辛亥路7段86巷旁公園前"}, "geometry": {"type": "Point", "coordinates": [121.55377, 24.980969]}}, {"type": "Feature", "id": 65, "properties": {"name": "V1NQM40", "desc": "興隆路4段木柵游泳池旁(107巷對面)"}, "geometry": {"type": "Point", "coordinates": [121.56066200000001, 24.987137]}}, {"type": "Feature", "id": 66, "properties": {"name": "V1VJK40", "desc": "水源快-往南下新店端終點"}, "geometry": {"type": "Point", "coordinates": [121.53415, 24.993327999999998]}}, {"type": "Feature", "id": 67, "properties": {"name": "VIAM700", "desc": "復興南路一段255號對面人行道上"}, "geometry": {"type": "Point", "coordinates": [121.543595, 25.036717000000003]}}, {"type": "Feature", "id": 68, "properties": {"name": "VHLM800", "desc": "復興南路二段52號大安高工大門右側"}, "geometry": {"type": "Point", "coordinates": [121.54307800000001, 25.031837]}}, {"type": "Feature", "id": 69, "properties": {"name": "VJGPQ00", "desc": "敦化南路一段162號前槽化島上"}, "geometry": {"type": "Point", "coordinates": [121.548451, 25.04349]}}, {"type": "Feature", "id": 70, "properties": {"name": "VJGN700", "desc": "敦化南路一段238巷口前槽化島上"}, "geometry": {"type": "Point", "coordinates": [121.548455, 25.039789000000003]}}, {"type": "Feature", "id": 71, "properties": {"name": "VI6NV00", "desc": "敦化南路一段336號前槽化島上"}, "geometry": {"type": "Point", "coordinates": [121.54836499999999, 25.03514]}}, {"type": "Feature", "id": 72, "properties": {"name": "VGHN840", "desc": "敦化南路二段與四維路154巷口槽化島上     "}, "geometry": {"type": "Point", "coordinates": [121.54856299999999, 25.030832]}}, {"type": "Feature", "id": 73, "properties": {"name": "VFNN700", "desc": "敦化南路二段與和平東路三段口西北側槽化島"}, "geometry": {"type": "Point", "coordinates": [121.54828899999998, 25.024821]}}, {"type": "Feature", "id": 74, "properties": {"name": "VFYKD01", "desc": "新生南路三段25巷旁"}, "geometry": {"type": "Point", "coordinates": [121.53482779999999, 25.02437222]}}, {"type": "Feature", "id": 75, "properties": {"name": "VF9KB00", "desc": "新生南路三段90號前"}, "geometry": {"type": "Point", "coordinates": [121.53326799999999, 25.018104]}}, {"type": "Feature", "id": 76, "properties": {"name": "VAWVC20", "desc": "木柵路五段21巷往東120mM處"}, "geometry": {"type": "Point", "coordinates": [121.582021, 25.002438]}}, {"type": "Feature", "id": 77, "properties": {"name": "VACTV20", "desc": "木柵路四段153號對面人行道上"}, "geometry": {"type": "Point", "coordinates": [121.57514099999999, 24.999295999999998]}}, {"type": "Feature", "id": 78, "properties": {"name": "V1IUI20", "desc": "指南路二段123號對面人行道"}, "geometry": {"type": "Point", "coordinates": [121.576582, 24.987464000000003]}}, {"type": "Feature", "id": 79, "properties": {"name": "V0UVS20", "desc": "指南路三段指南國小往南約60M處(附掛號誌燈桿)"}, "geometry": {"type": "Point", "coordinates": [121.583398, 24.977135999999998]}}, {"type": "Feature", "id": 80, "properties": {"name": "V1TT960", "desc": "新光路一段140號前"}, "geometry": {"type": "Point", "coordinates": [121.573901, 24.990436]}}, {"type": "Feature", "id": 81, "properties": {"name": "V2WUA20", "desc": "新光路二段(臺北木柵劍湖山兒童玩國前)"}, "geometry": {"type": "Point", "coordinates": [121.57683200000001, 24.996518]}}, {"type": "Feature", "id": 82, "properties": {"name": "V2ZUI60", "desc": "新光路二段動物園大門對面停車場入口旁"}, "geometry": {"type": "Point", "coordinates": [121.58065900000001, 24.999185]}}, {"type": "Feature", "id": 83, "properties": {"name": "V2RTQ20", "desc": "新光路二段動物園污水處理場前"}, "geometry": {"type": "Point", "coordinates": [121.574468, 24.995047]}}, {"type": "Feature", "id": 84, "properties": {"name": "VL6RM20", "desc": "八德路四段318號前"}, "geometry": {"type": "Point", "coordinates": [121.56761399999999, 25.049142]}}, {"type": "Feature", "id": 85, "properties": {"name": "VLDTB20", "desc": "八德路四段610號前"}, "geometry": {"type": "Point", "coordinates": [121.57313700000002, 25.049834]}}, {"type": "Feature", "id": 86, "properties": {"name": "VP8QY00", "desc": "三民路152號前"}, "geometry": {"type": "Point", "coordinates": [121.56335800000001, 25.061301]}}, {"type": "Feature", "id": 87, "properties": {"name": "VMTR600", "desc": "三民路84號對面人行道上"}, "geometry": {"type": "Point", "coordinates": [121.563574, 25.056442999999998]}}, {"type": "Feature", "id": 88, "properties": {"name": "VPDS600", "desc": "塔悠路-(舊宗一號公園56號燈桿旁"}, "geometry": {"type": "Point", "coordinates": [121.56861200000002, 25.061398]}}, {"type": "Feature", "id": 89, "properties": {"name": "VKRM820", "desc": "八德路二段346巷口"}, "geometry": {"type": "Point", "coordinates": [121.544595, 25.047675]}}, {"type": "Feature", "id": 90, "properties": {"name": "VKWNV20", "desc": "八德路三段32號對面(社教館)"}, "geometry": {"type": "Point", "coordinates": [121.551823, 25.048389]}}, {"type": "Feature", "id": 91, "properties": {"name": "VJGPQ20", "desc": "市民大道四段103號對面橋下"}, "geometry": {"type": "Point", "coordinates": [121.54738700000001, 25.044875]}}, {"type": "Feature", "id": 92, "properties": {"name": "VK6P820", "desc": "市民大道四段169號對面橋下"}, "geometry": {"type": "Point", "coordinates": [121.55099299999999, 25.044473999999997]}}, {"type": "Feature", "id": 93, "properties": {"name": "VKXRL60", "desc": "市民大道四段京華城對面人行道"}, "geometry": {"type": "Point", "coordinates": [121.56228200000001, 25.046939000000002]}}, {"type": "Feature", "id": 94, "properties": {"name": "VK6NY60", "desc": "市民大道四段與光復南路66巷口對面橋下"}, "geometry": {"type": "Point", "coordinates": [121.55645600000001, 25.045067]}}, {"type": "Feature", "id": 95, "properties": {"name": "VM9QH20", "desc": "健康路174號旁"}, "geometry": {"type": "Point", "coordinates": [121.55891399999999, 25.053851]}}, {"type": "Feature", "id": 96, "properties": {"name": "VM8PX60", "desc": "健康路305號前"}, "geometry": {"type": "Point", "coordinates": [121.565249, 25.054323999999998]}}, {"type": "Feature", "id": 97, "properties": {"name": "VPWMA00", "desc": "復興北路495號前(路燈桿)"}, "geometry": {"type": "Point", "coordinates": [121.544417, 25.065284]}}, {"type": "Feature", "id": 98, "properties": {"name": "VMCN800", "desc": "敦化北路102號前中央分隔島"}, "geometry": {"type": "Point", "coordinates": [121.5488889, 25.05333333]}}, {"type": "Feature", "id": 99, "properties": {"name": "VLPN800", "desc": "敦化北路133號前槽化島上"}, "geometry": {"type": "Point", "coordinates": [121.54882099999999, 25.053031]}}, {"type": "Feature", "id": 100, "properties": {"name": "VNUNJ00", "desc": "敦化北路236號前槽化島上"}, "geometry": {"type": "Point", "coordinates": [121.54936599999999, 25.059629]}}, {"type": "Feature", "id": 101, "properties": {"name": "VKWN800", "desc": "敦化南路一段5號前槽化島上"}, "geometry": {"type": "Point", "coordinates": [121.54903200000001, 25.047099]}}, {"type": "Feature", "id": 102, "properties": {"name": "V0150C1", "desc": "市高敦化西側往東"}, "geometry": {"type": "Point", "coordinates": [121.547972, 25.044889]}}, {"type": "Feature", "id": 103, "properties": {"name": "VMYN820", "desc": "民生東路三段138號前"}, "geometry": {"type": "Point", "coordinates": [121.54693799999998, 25.057516]}}, {"type": "Feature", "id": 104, "properties": {"name": "VN9PZ60", "desc": "民生東路五段82號前"}, "geometry": {"type": "Point", "coordinates": [121.558558, 25.058466]}}, {"type": "Feature", "id": 105, "properties": {"name": "VN8PG20", "desc": "民生東路四段118號對面人行道"}, "geometry": {"type": "Point", "coordinates": [121.55433500000001, 25.058365]}}, {"type": "Feature", "id": 106, "properties": {"name": "VNZQA20", "desc": "民權東路四段36號(軍營左側)"}, "geometry": {"type": "Point", "coordinates": [121.552318, 25.061541000000002]}}, {"type": "Feature", "id": 107, "properties": {"name": "VNZM960", "desc": "民權東路四段光復北路口往西約35M處"}, "geometry": {"type": "Point", "coordinates": [121.55416399999999, 25.062022]}}, {"type": "Feature", "id": 108, "properties": {"name": "VNXPC60", "desc": "民權東路四段新中街口往西約45M處"}, "geometry": {"type": "Point", "coordinates": [121.55963700000001, 25.062606]}}, {"type": "Feature", "id": 109, "properties": {"name": "VL7PX00", "desc": "光復北路11巷加油站出口右側人行道"}, "geometry": {"type": "Point", "coordinates": [121.557782, 25.048981]}}, {"type": "Feature", "id": 110, "properties": {"name": "VM7PP00", "desc": "健康路國軍松山醫院 側門左側人行道"}, "geometry": {"type": "Point", "coordinates": [121.555904, 25.054603]}}, {"type": "Feature", "id": 111, "properties": {"name": "VNXPC00", "desc": "光復北路-富錦街口對面人行道上"}, "geometry": {"type": "Point", "coordinates": [121.554473, 25.060404000000002]}}, {"type": "Feature", "id": 112, "properties": {"name": "VKLPX00", "desc": "光復南路35-1號前"}, "geometry": {"type": "Point", "coordinates": [121.557622, 25.046498]}}, {"type": "Feature", "id": 113, "properties": {"name": "VL9SB00", "desc": "基隆路一段8號前"}, "geometry": {"type": "Point", "coordinates": [121.569781, 25.050732]}}, {"type": "Feature", "id": 114, "properties": {"name": "VLKSH01", "desc": "環東大道(南京東至永吉)-正氣橋門型架(下基隆路車道)"}, "geometry": {"type": "Point", "coordinates": [121.569507, 25.049846]}}, {"type": "Feature", "id": 115, "properties": {"name": "VLKSH00", "desc": "環東大道(南京東至永吉)-正氣橋門型架(往市民大道)"}, "geometry": {"type": "Point", "coordinates": [121.569507, 25.049846]}}, {"type": "Feature", "id": 116, "properties": {"name": "V6120C0", "desc": "市民麥二"}, "geometry": {"type": "Point", "coordinates": [121.570825, 25.051468]}}, {"type": "Feature", "id": 117, "properties": {"name": "V6110C0", "desc": "基隆市民"}, "geometry": {"type": "Point", "coordinates": [121.570048, 25.052717]}}, {"type": "Feature", "id": 118, "properties": {"name": "VKESJ10", "desc": "永吉路195號前"}, "geometry": {"type": "Point", "coordinates": [121.57341399999999, 25.04549]}}, {"type": "Feature", "id": 119, "properties": {"name": "VL7SU60", "desc": "松信路-虎林街北側市民大道松山車站機車地下停車場出入口北側"}, "geometry": {"type": "Point", "coordinates": [121.5741667, 25.04946944]}}, {"type": "Feature", "id": 120, "properties": {"name": "VL7TM20", "desc": "松信路-虎林街南側市民大道松山車站機車地下停車場出入口南側"}, "geometry": {"type": "Point", "coordinates": [121.574175, 25.04930833]}}, {"type": "Feature", "id": 121, "properties": {"name": "VG7PG50", "desc": "基隆-和平東 往南"}, "geometry": {"type": "Point", "coordinates": [121.553772, 25.02555]}}, {"type": "Feature", "id": 122, "properties": {"name": "VJVRL40", "desc": "基隆路(永吉-松隆)-基隆路一段松山高中旁既設CMS(062)桿"}, "geometry": {"type": "Point", "coordinates": [121.566585, 25.044956]}}, {"type": "Feature", "id": 123, "properties": {"name": "VJERC40", "desc": "基隆路一段172巷口(門架式)"}, "geometry": {"type": "Point", "coordinates": [121.56523700000001, 25.043156]}}, {"type": "Feature", "id": 124, "properties": {"name": "VJERC00", "desc": "基隆路一段興雅路與松高路間(門架式)"}, "geometry": {"type": "Point", "coordinates": [121.56385800000001, 25.040507]}}, {"type": "Feature", "id": 125, "properties": {"name": "V9211A0", "desc": "基隆路方向上信義支線匝道4+170"}, "geometry": {"type": "Point", "coordinates": [121.569875, 25.032287]}}, {"type": "Feature", "id": 126, "properties": {"name": "VJERC50", "desc": "基隆路-忠孝東 往南"}, "geometry": {"type": "Point", "coordinates": [121.56563500000001, 25.043326]}}, {"type": "Feature", "id": 127, "properties": {"name": "VJERC51", "desc": "基隆路-忠孝東 往南"}, "geometry": {"type": "Point", "coordinates": [121.564972, 25.041469]}}, {"type": "Feature", "id": 128, "properties": {"name": "VJERC52", "desc": "基隆路-忠孝東 往南"}, "geometry": {"type": "Point", "coordinates": [121.564444, 25.040857]}}, {"type": "Feature", "id": 129, "properties": {"name": "VIKQU50", "desc": "基隆路-松高 往南"}, "geometry": {"type": "Point", "coordinates": [121.563576, 25.039687]}}, {"type": "Feature", "id": 130, "properties": {"name": "VJVRL10", "desc": "基隆路-松隆路 往北"}, "geometry": {"type": "Point", "coordinates": [121.565494, 25.042966]}}, {"type": "Feature", "id": 131, "properties": {"name": "VJVRL11", "desc": "基隆路-松隆路 往北"}, "geometry": {"type": "Point", "coordinates": [121.565951, 25.043154]}}, {"type": "Feature", "id": 132, "properties": {"name": "VI9QP12", "desc": "基隆路-松壽 往北"}, "geometry": {"type": "Point", "coordinates": [121.56149599999999, 25.035352]}}, {"type": "Feature", "id": 133, "properties": {"name": "VI9QP10", "desc": "基隆路-松壽 往北"}, "geometry": {"type": "Point", "coordinates": [121.560547, 25.033686]}}, {"type": "Feature", "id": 134, "properties": {"name": "VI9QP11", "desc": "基隆路-松壽 往北"}, "geometry": {"type": "Point", "coordinates": [121.561777, 25.036191]}}, {"type": "Feature", "id": 135, "properties": {"name": "VIKQP20", "desc": "仁愛四段-基隆一段往東"}, "geometry": {"type": "Point", "coordinates": [121.558989, 25.037619]}}, {"type": "Feature", "id": 136, "properties": {"name": "VIKPW61", "desc": "仁愛路四段-國父紀念館門口旁"}, "geometry": {"type": "Point", "coordinates": [121.55909170000001, 25.03773056]}}, {"type": "Feature", "id": 137, "properties": {"name": "VJFPW00", "desc": "光復南-忠孝東往北"}, "geometry": {"type": "Point", "coordinates": [121.55774299999999, 25.040494]}}, {"type": "Feature", "id": 138, "properties": {"name": "VHEPV00", "desc": "光復南-信義往北"}, "geometry": {"type": "Point", "coordinates": [121.557551, 25.030934]}}, {"type": "Feature", "id": 139, "properties": {"name": "VHKPV40", "desc": "光復南-信義往南"}, "geometry": {"type": "Point", "coordinates": [121.55741, 25.034763]}}, {"type": "Feature", "id": 140, "properties": {"name": "VIKPW00", "desc": "光復路(仁愛-信義)-光復南路417-1號前-附掛既設CMS(PJ04)桿"}, "geometry": {"type": "Point", "coordinates": [121.55763200000001, 25.036653]}}, {"type": "Feature", "id": 141, "properties": {"name": "VHEPV40", "desc": "光復路(信義-基隆)-光復南路620號前路燈桿(號誌控制箱旁)"}, "geometry": {"type": "Point", "coordinates": [121.55749499999999, 25.032103]}}, {"type": "Feature", "id": 142, "properties": {"name": "VJES820", "desc": "忠孝東-松仁往東"}, "geometry": {"type": "Point", "coordinates": [121.56608, 25.040996]}}, {"type": "Feature", "id": 143, "properties": {"name": "VJDST20", "desc": "忠孝東-松信往東"}, "geometry": {"type": "Point", "coordinates": [121.569685, 25.040693]}}, {"type": "Feature", "id": 144, "properties": {"name": "VJCTT20", "desc": "忠孝東路五段394號前"}, "geometry": {"type": "Point", "coordinates": [121.57463100000001, 25.040764000000003]}}, {"type": "Feature", "id": 145, "properties": {"name": "VJCTT60", "desc": "忠孝東路五段416號前"}, "geometry": {"type": "Point", "coordinates": [121.57491, 25.041088000000002]}}, {"type": "Feature", "id": 146, "properties": {"name": "VJFQQ60", "desc": "忠孝東路四段508號前"}, "geometry": {"type": "Point", "coordinates": [121.562324, 25.041045999999998]}}, {"type": "Feature", "id": 147, "properties": {"name": "VGTPW50", "desc": "基隆路-29巷 往南"}, "geometry": {"type": "Point", "coordinates": [121.55744399999999, 25.029057]}}, {"type": "Feature", "id": 148, "properties": {"name": "VJFQQ00", "desc": "逸仙路-忠孝 往北"}, "geometry": {"type": "Point", "coordinates": [121.56160600000001, 25.040101]}}, {"type": "Feature", "id": 149, "properties": {"name": "VVYIV00", "desc": "中山北路五段460巷口"}, "geometry": {"type": "Point", "coordinates": [121.52790700000001, 25.091836999999998]}}, {"type": "Feature", "id": 150, "properties": {"name": "VU5IF00", "desc": "中山北路五段報恩寺前(槽化島)"}, "geometry": {"type": "Point", "coordinates": [121.52563700000002, 25.084975]}}, {"type": "Feature", "id": 151, "properties": {"name": "V3AIL00", "desc": "中山北路六段328號對面人行道上"}, "geometry": {"type": "Point", "coordinates": [121.52572099999999, 25.111526]}}, {"type": "Feature", "id": 152, "properties": {"name": "VTTIF00", "desc": "中山北路圓山保齡球館前"}, "geometry": {"type": "Point", "coordinates": [121.525375, 25.08244167]}}, {"type": "Feature", "id": 153, "properties": {"name": "VWGIV60", "desc": "中正路116號前"}, "geometry": {"type": "Point", "coordinates": [121.52899599999999, 25.096059]}}, {"type": "Feature", "id": 154, "properties": {"name": "VW7HN20", "desc": "中正路426 號前"}, "geometry": {"type": "Point", "coordinates": [121.51917900000001, 25.09325]}}, {"type": "Feature", "id": 155, "properties": {"name": "VV9GE20", "desc": "中正路百齡橋頭中央分隔島號誌(往士林方向)水利處防汛機房旁第一支路燈桿"}, "geometry": {"type": "Point", "coordinates": [121.511909, 25.088343]}}, {"type": "Feature", "id": 156, "properties": {"name": "VUIFC60", "desc": "中正路百齡橋頭中央分隔島號誌(往重陽橋方向)水利處防汛機房旁第一支路燈桿"}, "geometry": {"type": "Point", "coordinates": [121.511972, 25.087857999999997]}}, {"type": "Feature", "id": 157, "properties": {"name": "VLMR820", "desc": "基河路328號前"}, "geometry": {"type": "Point", "coordinates": [121.51898600000001, 25.094556]}}, {"type": "Feature", "id": 158, "properties": {"name": "V3UNW00", "desc": "仰德大道三段與永公路口往北約300M處(附掛路燈桿)"}, "geometry": {"type": "Point", "coordinates": [121.55110400000001, 25.115911999999998]}}, {"type": "Feature", "id": 159, "properties": {"name": "V7HMH00", "desc": "仰德大道四段與中華路口往南約70M處(附掛路燈桿)"}, "geometry": {"type": "Point", "coordinates": [121.546025, 25.133328]}}, {"type": "Feature", "id": 160, "properties": {"name": "VUVHL40", "desc": "承德路(中正-劍潭)-承德路四段242號中央分隔島新設VD附掛停管處既設CMS"}, "geometry": {"type": "Point", "coordinates": [121.520931, 25.089087]}}, {"type": "Feature", "id": 161, "properties": {"name": "VVVGB40", "desc": "承德路五段監理處前"}, "geometry": {"type": "Point", "coordinates": [121.51396299999999, 25.095371]}}, {"type": "Feature", "id": 162, "properties": {"name": "VT6HS40", "desc": "承德路-後港街(鬍鬚張門口)"}, "geometry": {"type": "Point", "coordinates": [121.522764, 25.081814]}}, {"type": "Feature", "id": 163, "properties": {"name": "VZLKH60", "desc": "德行東路322號對面人行道"}, "geometry": {"type": "Point", "coordinates": [121.537219, 25.110573000000002]}}, {"type": "Feature", "id": 164, "properties": {"name": "V5AAF60", "desc": "大度路一段洲美高架下橋往西約300M"}, "geometry": {"type": "Point", "coordinates": [121.490649, 25.121478]}}, {"type": "Feature", "id": 165, "properties": {"name": "V58AH60", "desc": "大度路二段立德路往東約300M"}, "geometry": {"type": "Point", "coordinates": [121.47438000000001, 25.122434]}}, {"type": "Feature", "id": 166, "properties": {"name": "V5B2R60", "desc": "大度路二段貴子坑溪堤防往西約300M"}, "geometry": {"type": "Point", "coordinates": [121.48301599999999, 25.121963]}}, {"type": "Feature", "id": 167, "properties": {"name": "V7JCE40", "desc": "大業路515號前"}, "geometry": {"type": "Point", "coordinates": [121.49555500000001, 25.133108]}}, {"type": "Feature", "id": 168, "properties": {"name": "VGYS7A0", "desc": "往松仁路出口匝道3+970"}, "geometry": {"type": "Point", "coordinates": [121.57171699999999, 25.032244]}}, {"type": "Feature", "id": 169, "properties": {"name": "VGYS640", "desc": "松仁-松平 往南"}, "geometry": {"type": "Point", "coordinates": [121.56818500000001, 25.031129]}}, {"type": "Feature", "id": 170, "properties": {"name": "VHXS600", "desc": "松仁-松勇 往北"}, "geometry": {"type": "Point", "coordinates": [121.568271, 25.032754]}}, {"type": "Feature", "id": 171, "properties": {"name": "VIVS602", "desc": "松仁-松高 往北"}, "geometry": {"type": "Point", "coordinates": [121.56871100000001, 25.040001]}}, {"type": "Feature", "id": 172, "properties": {"name": "VI9S600", "desc": "松仁-松壽 往北"}, "geometry": {"type": "Point", "coordinates": [121.568491, 25.035272]}}, {"type": "Feature", "id": 173, "properties": {"name": "VIWRJ60", "desc": "松高路-松仁 往西"}, "geometry": {"type": "Point", "coordinates": [121.5684, 25.039046]}}, {"type": "Feature", "id": 174, "properties": {"name": "VIWR760", "desc": "松高路-興雅路 往西"}, "geometry": {"type": "Point", "coordinates": [121.56443600000001, 25.039187]}}, {"type": "Feature", "id": 175, "properties": {"name": "VIWRJ00", "desc": "松智路-松高 往北"}, "geometry": {"type": "Point", "coordinates": [121.56541100000001, 25.037748]}}, {"type": "Feature", "id": 176, "properties": {"name": "VI9R760", "desc": "松壽-市府 往西"}, "geometry": {"type": "Point", "coordinates": [121.56463899999999, 25.035801]}}, {"type": "Feature", "id": 177, "properties": {"name": "VI9RW20", "desc": "松壽-松仁 往東"}, "geometry": {"type": "Point", "coordinates": [121.566244, 25.035804000000002]}}, {"type": "Feature", "id": 178, "properties": {"name": "V9201A0", "desc": "松仁路方向上信義支線匝道3+315"}, "geometry": {"type": "Point", "coordinates": [121.57297, 25.033186999999998]}}, {"type": "Feature", "id": 179, "properties": {"name": "VGYS7A1", "desc": "松德路出口匝道0+060"}, "geometry": {"type": "Point", "coordinates": [121.57195300000001, 25.032181]}}, {"type": "Feature", "id": 180, "properties": {"name": "VHKPV60", "desc": "信義五段-光復南-往西"}, "geometry": {"type": "Point", "coordinates": [121.55904699999999, 25.03305]}}, {"type": "Feature", "id": 181, "properties": {"name": "VHJS620", "desc": "信義五段-松仁路往東"}, "geometry": {"type": "Point", "coordinates": [121.566498, 25.032795999999998]}}, {"type": "Feature", "id": 182, "properties": {"name": "V9260A0", "desc": "信義支線隧道外1+040"}, "geometry": {"type": "Point", "coordinates": [121.580692, 25.008474]}}, {"type": "Feature", "id": 183, "properties": {"name": "V9240A0", "desc": "信義支線隧道外2+850"}, "geometry": {"type": "Point", "coordinates": [121.576476, 25.022051]}}, {"type": "Feature", "id": 184, "properties": {"name": "V9010A0", "desc": "萬芳交流道信義支線入口0+460"}, "geometry": {"type": "Point", "coordinates": [121.579757, 25.003485]}}, {"type": "Feature", "id": 185, "properties": {"name": "VYRGM00", "desc": "文林北路68號前"}, "geometry": {"type": "Point", "coordinates": [121.518198, 25.105142999999998]}}, {"type": "Feature", "id": 186, "properties": {"name": "V3MER00", "desc": "承德路七段168巷口"}, "geometry": {"type": "Point", "coordinates": [121.50838600000002, 25.113446]}}, {"type": "Feature", "id": 187, "properties": {"name": "VVCGQ40", "desc": "承德路七段382號對面人行道上"}, "geometry": {"type": "Point", "coordinates": [121.501696, 25.118895000000002]}}, {"type": "Feature", "id": 188, "properties": {"name": "V36F660", "desc": "承德路七段與承德路七段166巷口對面人行道"}, "geometry": {"type": "Point", "coordinates": [121.50768300000001, 25.113485]}}, {"type": "Feature", "id": 189, "properties": {"name": "VBWQ840", "desc": "辛亥隧道中段"}, "geometry": {"type": "Point", "coordinates": [121.55510559999999, 25.01190278]}}, {"type": "Feature", "id": 190, "properties": {"name": "V4VDD40", "desc": "承德路六段425號中油加油站往南50M處(人行道)"}, "geometry": {"type": "Point", "coordinates": [121.51131000000001, 25.108435]}}, {"type": "Feature", "id": 191, "properties": {"name": "V8220E2", "desc": "淡北三"}, "geometry": {"type": "Point", "coordinates": [121.498442, 25.111386]}}, {"type": "Feature", "id": 192, "properties": {"name": "VWRLS20", "desc": "至善路一段軍方電台前(234號燈桿旁)"}, "geometry": {"type": "Point", "coordinates": [121.540967, 25.097081]}}, {"type": "Feature", "id": 193, "properties": {"name": "VXWNW20", "desc": "至善路二段258號前"}, "geometry": {"type": "Point", "coordinates": [121.55065800000001, 25.100358]}}, {"type": "Feature", "id": 194, "properties": {"name": "V3ZT820", "desc": "至善路三段113號對面人行道上"}, "geometry": {"type": "Point", "coordinates": [121.570355, 25.114720000000002]}}, {"type": "Feature", "id": 195, "properties": {"name": "VZAJE60", "desc": "忠誠路一段98號前"}, "geometry": {"type": "Point", "coordinates": [121.52808300000001, 25.105135]}}, {"type": "Feature", "id": 196, "properties": {"name": "V37JI40", "desc": "忠誠路二段126號前"}, "geometry": {"type": "Point", "coordinates": [121.531888, 25.113823999999997]}}, {"type": "Feature", "id": 197, "properties": {"name": "VX9KL60", "desc": "福林路253號對面人行道上"}, "geometry": {"type": "Point", "coordinates": [121.53522199999999, 25.098311]}}, {"type": "Feature", "id": 198, "properties": {"name": "V8260E0", "desc": "社中街與重陽橋間(環路線圈式車輛偵測器)環河北路3段(位於延平北路6段交界處南向170公尺前中央分隔島)"}, "geometry": {"type": "Point", "coordinates": [121.50214, 25.089354]}}, {"type": "Feature", "id": 199, "properties": {"name": "V8010A1", "desc": "延平北路6段436號前分隔島"}, "geometry": {"type": "Point", "coordinates": [121.499525, 25.092198]}}, {"type": "Feature", "id": 200, "properties": {"name": "V8250E1", "desc": "延平北路6段475之2號"}, "geometry": {"type": "Point", "coordinates": [121.499247, 25.092189]}}, {"type": "Feature", "id": 201, "properties": {"name": "V8001H2", "desc": "延平北路6段社子國小對向公園"}, "geometry": {"type": "Point", "coordinates": [121.50245, 25.089831]}}, {"type": "Feature", "id": 202, "properties": {"name": "V8001H1", "desc": "社中接與地下道出口(環路線圈式車輛偵測器)環河北路3段237號前(中央分隔島)"}, "geometry": {"type": "Point", "coordinates": [121.50299999999999, 25.088764]}}, {"type": "Feature", "id": 203, "properties": {"name": "VU8EF20", "desc": "重陽橋上(靠臺北市端)(附掛門架)"}, "geometry": {"type": "Point", "coordinates": [121.504999, 25.085407999999997]}}, {"type": "Feature", "id": 204, "properties": {"name": "V8001H0", "desc": "重陽橋車行地下道出口處(環路線圈式車輛偵測器)環河北路3段185號前(中央分隔島)"}, "geometry": {"type": "Point", "coordinates": [121.50466899999999, 25.087034]}}, {"type": "Feature", "id": 205, "properties": {"name": "V50B0A0", "desc": "葫蘆國小往北"}, "geometry": {"type": "Point", "coordinates": [121.507099, 25.082710000000002]}}, {"type": "Feature", "id": 206, "properties": {"name": "V8010A2", "desc": "跨河段(高架式車輛偵測器)位於延平北路7段106巷94弄上方(基隆河南側堤防上方)終端控制箱位於高架橋門型鋼架旁"}, "geometry": {"type": "Point", "coordinates": [121.49753999999999, 25.096662]}}, {"type": "Feature", "id": 207, "properties": {"name": "V8250E0", "desc": "福國社中一"}, "geometry": {"type": "Point", "coordinates": [121.497524, 25.09763]}}, {"type": "Feature", "id": 208, "properties": {"name": "V56BU20", "desc": "大度路(大度路二段-第二迴轉道)-大度路二段機車道路側閃黃燈號誌桿"}, "geometry": {"type": "Point", "coordinates": [121.48598899999999, 25.121857000000002]}}, {"type": "Feature", "id": 209, "properties": {"name": "V5B2R20", "desc": "大度路(立德路-大度路二段)-大度路三段151號好而美店家前號誌桿"}, "geometry": {"type": "Point", "coordinates": [121.473083, 25.122709]}}, {"type": "Feature", "id": 210, "properties": {"name": "V5AAF61", "desc": "大度路-上大度路高架橋側(西向)號誌桿"}, "geometry": {"type": "Point", "coordinates": [121.468841, 25.123138]}}, {"type": "Feature", "id": 211, "properties": {"name": "VLGGYA0", "desc": "淡北13出口匝道"}, "geometry": {"type": "Point", "coordinates": [121.499521, 25.106028]}}, {"type": "Feature", "id": 212, "properties": {"name": "V8220E0", "desc": "淡北一"}, "geometry": {"type": "Point", "coordinates": [121.49983200000001, 25.119073]}}, {"type": "Feature", "id": 213, "properties": {"name": "V8040A1", "desc": "北投13號下匝道至出口處(北上中間段)北上車道 3K+425  (終端控制箱位於橋墩地面)"}, "geometry": {"type": "Point", "coordinates": [121.499922, 25.116564]}}, {"type": "Feature", "id": 214, "properties": {"name": "VIRHZ20", "desc": "仁愛路一段29號前"}, "geometry": {"type": "Point", "coordinates": [121.52280400000001, 25.03878]}}, {"type": "Feature", "id": 215, "properties": {"name": "VIPIZ60", "desc": "仁愛路二段27號前"}, "geometry": {"type": "Point", "coordinates": [121.52734199999999, 25.038556]}}, {"type": "Feature", "id": 216, "properties": {"name": "VIPJA20", "desc": "仁愛路二段71號旁"}, "geometry": {"type": "Point", "coordinates": [121.530978, 25.038372]}}, {"type": "Feature", "id": 217, "properties": {"name": "VI6I900", "desc": "杭州南路一段145號對面"}, "geometry": {"type": "Point", "coordinates": [121.524432, 25.03615]}}, {"type": "Feature", "id": 218, "properties": {"name": "VJ7II00", "desc": "杭州南路一段63號對面人行道"}, "geometry": {"type": "Point", "coordinates": [121.52574399999999, 25.040467]}}, {"type": "Feature", "id": 219, "properties": {"name": "VKII640", "desc": "林森北路7之2號前"}, "geometry": {"type": "Point", "coordinates": [121.523606, 25.045719000000002]}}, {"type": "Feature", "id": 220, "properties": {"name": "VJMHU00", "desc": "林森南路8巷口"}, "geometry": {"type": "Point", "coordinates": [121.52301999999999, 25.043103]}}, {"type": "Feature", "id": 221, "properties": {"name": "VIGHK40", "desc": "林森南路與仁愛路一段口(地下道入口處)"}, "geometry": {"type": "Point", "coordinates": [121.52143500000001, 25.038523]}}, {"type": "Feature", "id": 222, "properties": {"name": "VIXJ740", "desc": "金山南路一段23號前"}, "geometry": {"type": "Point", "coordinates": [121.529103, 25.040274]}}, {"type": "Feature", "id": 223, "properties": {"name": "VIPIZ61", "desc": "金山南路一段72-1號前"}, "geometry": {"type": "Point", "coordinates": [121.52818700000002, 25.037018]}}, {"type": "Feature", "id": 224, "properties": {"name": "VIBHV20", "desc": "信義路一段5之1號前"}, "geometry": {"type": "Point", "coordinates": [121.52196299999999, 25.036842]}}, {"type": "Feature", "id": 225, "properties": {"name": "VIGHK20", "desc": "信義路一段東門國小往西約60M處"}, "geometry": {"type": "Point", "coordinates": [121.519007, 25.038324]}}, {"type": "Feature", "id": 226, "properties": {"name": "VDKJT00", "desc": "思源路水博館對面人行道上"}, "geometry": {"type": "Point", "coordinates": [121.531022, 25.014158]}}, {"type": "Feature", "id": 227, "properties": {"name": "VHSH560", "desc": "愛國東路72號對面人行道上"}, "geometry": {"type": "Point", "coordinates": [121.51971100000002, 25.033735]}}, {"type": "Feature", "id": 228, "properties": {"name": "VJMHU60", "desc": "濟南路一段71號對面人行道"}, "geometry": {"type": "Point", "coordinates": [121.523829, 25.04208]}}, {"type": "Feature", "id": 229, "properties": {"name": "VJWJ720", "desc": "濟南路二段50號對面人行道"}, "geometry": {"type": "Point", "coordinates": [121.53141299999999, 25.040492]}}, {"type": "Feature", "id": 230, "properties": {"name": "VGTHG00", "desc": "羅斯福路二段7號前"}, "geometry": {"type": "Point", "coordinates": [121.52087900000001, 25.028883]}}, {"type": "Feature", "id": 231, "properties": {"name": "VELJA00", "desc": "羅斯福路三段218號前"}, "geometry": {"type": "Point", "coordinates": [121.53023999999999, 25.019018]}}, {"type": "Feature", "id": 232, "properties": {"name": "VCPKT41", "desc": "羅斯福路四段32號前"}, "geometry": {"type": "Point", "coordinates": [121.53368300000001, 25.015492000000002]}}, {"type": "Feature", "id": 233, "properties": {"name": "VJWJ700", "desc": "松江/新生南路一段(忠孝-仁愛)-往北方向-新生南路一段與濟南路口中央分隔島號誌桿"}, "geometry": {"type": "Point", "coordinates": [121.532824, 25.040098999999998]}}, {"type": "Feature", "id": 234, "properties": {"name": "VJWJ740", "desc": "松江/新生南路一段(忠孝-仁愛)-往南方向-新生南路一段與濟南路口中央分隔島號誌桿"}, "geometry": {"type": "Point", "coordinates": [121.53284, 25.04024]}}, {"type": "Feature", "id": 235, "properties": {"name": "VHMKV20", "desc": "信義路(新生至建國)-信義路三段45號前南側中央分隔島號誌"}, "geometry": {"type": "Point", "coordinates": [121.53608200000001, 25.033563]}}, {"type": "Feature", "id": 236, "properties": {"name": "VHNJV20", "desc": "信義路二段148號巷口路燈桿"}, "geometry": {"type": "Point", "coordinates": [121.52874399999999, 25.033860999999998]}}, {"type": "Feature", "id": 237, "properties": {"name": "VHSIP20", "desc": "信義路二段7號前中央分隔島燈桿"}, "geometry": {"type": "Point", "coordinates": [121.525182, 25.035099]}}, {"type": "Feature", "id": 238, "properties": {"name": "VHMM620", "desc": "水源快-往南下新店端終點信義路三段147巷口前中央分隔島路燈桿(捷運信義線大安站2號出口前"}, "geometry": {"type": "Point", "coordinates": [121.550122, 25.031438]}}, {"type": "Feature", "id": 239, "properties": {"name": "V1011A0", "desc": "信義路上匝道"}, "geometry": {"type": "Point", "coordinates": [121.538046, 25.034545]}}, {"type": "Feature", "id": 240, "properties": {"name": "VFVGM00", "desc": "中正橋(靠重慶南路三段92之1號橋上)(附掛路燈桿)"}, "geometry": {"type": "Point", "coordinates": [121.516278, 25.025576]}}, {"type": "Feature", "id": 241, "properties": {"name": "VFDGP01", "desc": "中正橋入城門架CCTV桿"}, "geometry": {"type": "Point", "coordinates": [121.51673400000001, 25.021654]}}, {"type": "Feature", "id": 242, "properties": {"name": "VE7GH40", "desc": "水源快往中正橋方向出口旁"}, "geometry": {"type": "Point", "coordinates": [121.52448999999999, 25.02049]}}, {"type": "Feature", "id": 243, "properties": {"name": "VDTJT00", "desc": "水源路11-1號天橋旁自立桿"}, "geometry": {"type": "Point", "coordinates": [121.533974, 25.013938]}}, {"type": "Feature", "id": 244, "properties": {"name": "VH7EN60", "desc": "和平西路(中華-南海)-和平西路2段63號(莒光路口)中央分隔島號誌桿"}, "geometry": {"type": "Point", "coordinates": [121.50791699999999, 25.031321]}}, {"type": "Feature", "id": 245, "properties": {"name": "VJTJ960", "desc": "八德路一段43巷口"}, "geometry": {"type": "Point", "coordinates": [121.531449, 25.044283]}}, {"type": "Feature", "id": 246, "properties": {"name": "VHWGD60", "desc": "中山南路5號前"}, "geometry": {"type": "Point", "coordinates": [121.518699, 25.042929]}}, {"type": "Feature", "id": 247, "properties": {"name": "VHWGD40", "desc": "中山南路中央圖書館前"}, "geometry": {"type": "Point", "coordinates": [121.51679399999999, 25.037591]}}, {"type": "Feature", "id": 248, "properties": {"name": "VI9EM00", "desc": "中華路二段39巷口"}, "geometry": {"type": "Point", "coordinates": [121.50622, 25.035224]}}, {"type": "Feature", "id": 249, "properties": {"name": "VL5GL60", "desc": "市民大道一段與中山北路口往西146M處(橋下)"}, "geometry": {"type": "Point", "coordinates": [121.51903, 25.048525]}}, {"type": "Feature", "id": 250, "properties": {"name": "VHHEF20", "desc": "和平西路二段150-1號前"}, "geometry": {"type": "Point", "coordinates": [121.505765, 25.032797]}}, {"type": "Feature", "id": 251, "properties": {"name": "VKLGD20", "desc": "忠孝西路一段70號前(消防隊)"}, "geometry": {"type": "Point", "coordinates": [121.51449299999999, 25.046708]}}, {"type": "Feature", "id": 252, "properties": {"name": "VKAHN20", "desc": "忠孝東路一段12號對面人行道上"}, "geometry": {"type": "Point", "coordinates": [121.522177, 25.045273]}}, {"type": "Feature", "id": 253, "properties": {"name": "VK5IE20", "desc": "忠孝東路一段148號前"}, "geometry": {"type": "Point", "coordinates": [121.526126, 25.043923]}}, {"type": "Feature", "id": 254, "properties": {"name": "VH7E760", "desc": "莒光路42號前"}, "geometry": {"type": "Point", "coordinates": [121.505996, 25.031218]}}, {"type": "Feature", "id": 255, "properties": {"name": "VCNKM20", "desc": "福和橋(基隆路三段與汀州路三段口)(附掛路燈桿)"}, "geometry": {"type": "Point", "coordinates": [121.53619199999999, 25.011385999999998]}}, {"type": "Feature", "id": 256, "properties": {"name": "VSJJX20", "desc": "北安路77巷口右側"}, "geometry": {"type": "Point", "coordinates": [121.528521, 25.077977]}}, {"type": "Feature", "id": 257, "properties": {"name": "VSEMV60", "desc": "明水路417號前"}, "geometry": {"type": "Point", "coordinates": [121.54787900000001, 25.077519]}}, {"type": "Feature", "id": 258, "properties": {"name": "VT9NN00", "desc": "明水路604號對面人行道上"}, "geometry": {"type": "Point", "coordinates": [121.550991, 25.081787]}}, {"type": "Feature", "id": 259, "properties": {"name": "VSGLN60", "desc": "明水路大直橋往西約130M處"}, "geometry": {"type": "Point", "coordinates": [121.542933, 25.077681]}}, {"type": "Feature", "id": 260, "properties": {"name": "VRKQZ40", "desc": "基湖路122號-158號(煙波巴洛克大樓對面人行道)"}, "geometry": {"type": "Point", "coordinates": [121.56321499999999, 25.077776999999998]}}, {"type": "Feature", "id": 261, "properties": {"name": "V4090H0", "desc": "萬大路上與西園路下"}, "geometry": {"type": "Point", "coordinates": [121.48868700000001, 25.029272]}}, {"type": "Feature", "id": 262, "properties": {"name": "V0120C0", "desc": "市高重慶入口往東"}, "geometry": {"type": "Point", "coordinates": [121.511642, 25.049851]}}, {"type": "Feature", "id": 263, "properties": {"name": "VU5QC60", "desc": "內湖路(北安路-基湖路)-內湖路1段59號加油站前路燈桿(已附掛市警局CCTV)"}, "geometry": {"type": "Point", "coordinates": [121.559777, 25.084945]}}, {"type": "Feature", "id": 264, "properties": {"name": "VTXQJ20", "desc": "內湖路一段一巷口號誌桿上"}, "geometry": {"type": "Point", "coordinates": [121.55841299999999, 25.084908]}}, {"type": "Feature", "id": 265, "properties": {"name": "VT8SZ60", "desc": "內湖路(基湖路-港墘路)-內湖路1段609號路燈桿(已附掛市警局CCTV)"}, "geometry": {"type": "Point", "coordinates": [121.573669, 25.080648]}}, {"type": "Feature", "id": 266, "properties": {"name": "VTHRR20", "desc": "內湖路(基湖路-港墘路)-西湖捷運站2號出口前路燈桿(TC箱旁)"}, "geometry": {"type": "Point", "coordinates": [121.56683999999998, 25.082103]}}, {"type": "Feature", "id": 267, "properties": {"name": "VSNVA60", "desc": "內湖路(港墘路-文德路)-文德路15號路燈桿(已附掛市警局CCTV)"}, "geometry": {"type": "Point", "coordinates": [121.580076, 25.078539000000003]}}, {"type": "Feature", "id": 268, "properties": {"name": "VSXTK20", "desc": "內湖路(港墘路-文德路)-港墘捷運站2號出口前號誌桿"}, "geometry": {"type": "Point", "coordinates": [121.57445700000001, 25.080257]}}, {"type": "Feature", "id": 269, "properties": {"name": "VSQVZ20", "desc": "文德路(文德路-金龍路)-文德路內湖高中門口前路燈桿(已附掛市警局CCTV)"}, "geometry": {"type": "Point", "coordinates": [121.58680600000001, 25.078583]}}, {"type": "Feature", "id": 270, "properties": {"name": "VSSWC60", "desc": "成功路(文德路-金龍路)-成功路3段152號前路燈桿(已附掛市警局CCTV)"}, "geometry": {"type": "Point", "coordinates": [121.59003799999999, 25.07997]}}, {"type": "Feature", "id": 271, "properties": {"name": "VTVXH20", "desc": "成功路(文德路-金龍路)-成功路4段147號星巴克前路燈桿(已附掛市警局CCTV)"}, "geometry": {"type": "Point", "coordinates": [121.59371499999999, 25.083064999999998]}}, {"type": "Feature", "id": 272, "properties": {"name": "VTYXQ60", "desc": "成功路(金龍路-康湖路)-成功路4段294巷口路燈桿(捷運柱號0611)(已附掛市警局CCTV)"}, "geometry": {"type": "Point", "coordinates": [121.597696, 25.084698]}}, {"type": "Feature", "id": 273, "properties": {"name": "VTZY920", "desc": "成功路(金龍路-康湖路)-成功路4段323巷口路燈桿(已附掛市警局CCTV)"}, "geometry": {"type": "Point", "coordinates": [121.59872299999999, 25.084652]}}, {"type": "Feature", "id": 274, "properties": {"name": "VSHZU60", "desc": "成功路(康湖路-康寧路三段)-成功路5段康湖路口前CMS桿(4x5字CMS)"}, "geometry": {"type": "Point", "coordinates": [121.60713700000001, 25.080915]}}, {"type": "Feature", "id": 275, "properties": {"name": "VDENZ00", "desc": "辛亥隧道中段"}, "geometry": {"type": "Point", "coordinates": [121.55462220000001, 25.01284722]}}, {"type": "Feature", "id": 276, "properties": {"name": "VPBTD70", "desc": "舊宗路一段與舊宗路一段150巷口"}, "geometry": {"type": "Point", "coordinates": [121.57731000000001, 25.062696]}}, {"type": "Feature", "id": 277, "properties": {"name": "VU8P760", "desc": "北安路813-1號前燈桿"}, "geometry": {"type": "Point", "coordinates": [121.555594, 25.084882999999998]}}, {"type": "Feature", "id": 278, "properties": {"name": "VSVI900", "desc": "北安路及中山北路四段中央分隔島號誌"}, "geometry": {"type": "Point", "coordinates": [121.525398, 25.076999]}}, {"type": "Feature", "id": 279, "properties": {"name": "VKLLH20", "desc": "八德路二段249號前"}, "geometry": {"type": "Point", "coordinates": [121.540499, 25.046995000000003]}}, {"type": "Feature", "id": 280, "properties": {"name": "VKNIV20", "desc": "市民大道二段與長安東路一段52巷口往西40M處(橋下)"}, "geometry": {"type": "Point", "coordinates": [121.526921, 25.046899]}}, {"type": "Feature", "id": 281, "properties": {"name": "VKSIE60", "desc": "市民大道二段與長安東路一段52巷口往西40M處(橋下)"}, "geometry": {"type": "Point", "coordinates": [121.527022, 25.047304999999998]}}, {"type": "Feature", "id": 282, "properties": {"name": "VKJJP20", "desc": "市民大道三段17號對面橋下"}, "geometry": {"type": "Point", "coordinates": [121.53105900000001, 25.045657000000002]}}, {"type": "Feature", "id": 283, "properties": {"name": "VK9KC60", "desc": "市民大道三段與八德路二段88巷口"}, "geometry": {"type": "Point", "coordinates": [121.53577299999999, 25.044972]}}, {"type": "Feature", "id": 284, "properties": {"name": "VLAKQ20", "desc": "建國北路一段71號前"}, "geometry": {"type": "Point", "coordinates": [121.536801, 25.051189]}}, {"type": "Feature", "id": 285, "properties": {"name": "VNLKR60", "desc": "建國北路二段135號前"}, "geometry": {"type": "Point", "coordinates": [121.537247, 25.060385999999998]}}, {"type": "Feature", "id": 286, "properties": {"name": "VP5KR40", "desc": "建國北路二段186巷口"}, "geometry": {"type": "Point", "coordinates": [121.536718, 25.05944]}}, {"type": "Feature", "id": 287, "properties": {"name": "VMEKQ40", "desc": "建國北路二段33號前"}, "geometry": {"type": "Point", "coordinates": [121.537273, 25.054825]}}, {"type": "Feature", "id": 288, "properties": {"name": "VMEKQ41", "desc": "建國北路二段84號前"}, "geometry": {"type": "Point", "coordinates": [121.536524, 25.055803]}}, {"type": "Feature", "id": 289, "properties": {"name": "VPHKR40", "desc": "建國北路三段90號前"}, "geometry": {"type": "Point", "coordinates": [121.534884, 25.066326]}}, {"type": "Feature", "id": 290, "properties": {"name": "VGLKW40", "desc": "建國南路一段(八德市場10號對面)"}, "geometry": {"type": "Point", "coordinates": [121.536856, 25.045663]}}, {"type": "Feature", "id": 291, "properties": {"name": "VK7KP40", "desc": "建國南路一段(八德市場38號對面)"}, "geometry": {"type": "Point", "coordinates": [121.536331, 25.045719000000002]}}, {"type": "Feature", "id": 292, "properties": {"name": "VMZM900", "desc": "復興北路344號前"}, "geometry": {"type": "Point", "coordinates": [121.543776, 25.059765]}}, {"type": "Feature", "id": 293, "properties": {"name": "V6141E0", "desc": "堤頂上匝道入口"}, "geometry": {"type": "Point", "coordinates": [121.572446, 25.063234]}}, {"type": "Feature", "id": 294, "properties": {"name": "V10E2A0", "desc": "南京出口匝道"}, "geometry": {"type": "Point", "coordinates": [121.537052, 25.049661999999998]}}, {"type": "Feature", "id": 295, "properties": {"name": "V1240E0", "desc": "長春上與長安上匝道"}, "geometry": {"type": "Point", "coordinates": [121.53646599999999, 25.051768]}}, {"type": "Feature", "id": 296, "properties": {"name": "VLAJE40", "desc": "吉林路15號長安國小門口右側人行道"}, "geometry": {"type": "Point", "coordinates": [121.52991000000002, 25.050446]}}, {"type": "Feature", "id": 297, "properties": {"name": "VPLJF00", "desc": "吉林路新生北路3段25巷口"}, "geometry": {"type": "Point", "coordinates": [121.529871, 25.064512]}}, {"type": "Feature", "id": 298, "properties": {"name": "VLRJX00", "desc": "松江路74巷口  松江路100巷口南側人行道"}, "geometry": {"type": "Point", "coordinates": [121.53290829999999, 25.05090833]}}, {"type": "Feature", "id": 299, "properties": {"name": "VMEJW40", "desc": "松江路190號前"}, "geometry": {"type": "Point", "coordinates": [121.533078, 25.056691]}}, {"type": "Feature", "id": 300, "properties": {"name": "VNLJX20", "desc": "松江路297巷口"}, "geometry": {"type": "Point", "coordinates": [121.532301, 25.060295999999997]}}, {"type": "Feature", "id": 301, "properties": {"name": "VP6JY40", "desc": "松江路366號前"}, "geometry": {"type": "Point", "coordinates": [121.533161, 25.061989999999998]}}, {"type": "Feature", "id": 302, "properties": {"name": "VQEJY00", "desc": "松江路518號"}, "geometry": {"type": "Point", "coordinates": [121.532882, 25.066360999999997]}}, {"type": "Feature", "id": 303, "properties": {"name": "VLRIF40", "desc": "林森北路15號公園前"}, "geometry": {"type": "Point", "coordinates": [121.525442, 25.053161]}}, {"type": "Feature", "id": 304, "properties": {"name": "VN5IG00", "desc": "林森北路348號前"}, "geometry": {"type": "Point", "coordinates": [121.52535900000001, 25.057107000000002]}}, {"type": "Feature", "id": 305, "properties": {"name": "VNKIG00", "desc": "林森北路414號前"}, "geometry": {"type": "Point", "coordinates": [121.52543899999999, 25.059435999999998]}}, {"type": "Feature", "id": 306, "properties": {"name": "VNKIG40", "desc": "林森北路487號前"}, "geometry": {"type": "Point", "coordinates": [121.52569299999999, 25.060852]}}, {"type": "Feature", "id": 307, "properties": {"name": "VPYIH00", "desc": "林森北路588號前"}, "geometry": {"type": "Point", "coordinates": [121.525742, 25.065519000000002]}}, {"type": "Feature", "id": 308, "properties": {"name": "VPYIH40", "desc": "林森北路661號前"}, "geometry": {"type": "Point", "coordinates": [121.52538500000001, 25.06766]}}, {"type": "Feature", "id": 309, "properties": {"name": "VLQLI40", "desc": "龍江路149巷口對面"}, "geometry": {"type": "Point", "coordinates": [121.540578, 25.053685]}}, {"type": "Feature", "id": 310, "properties": {"name": "VNZLJ40", "desc": "龍江路345巷口(往北約25M靠公園邊)"}, "geometry": {"type": "Point", "coordinates": [121.54096899999999, 25.063659]}}, {"type": "Feature", "id": 311, "properties": {"name": "VLQLI00", "desc": "龍江路53號前"}, "geometry": {"type": "Point", "coordinates": [121.54048999999999, 25.049523]}}, {"type": "Feature", "id": 312, "properties": {"name": "V1210E0", "desc": "圓山上與民權下匝道"}, "geometry": {"type": "Point", "coordinates": [121.53321799999999, 25.068436]}}, {"type": "Feature", "id": 313, "properties": {"name": "VN5HV00", "desc": "中山北路2段46號前"}, "geometry": {"type": "Point", "coordinates": [121.52265600000001, 25.055344]}}, {"type": "Feature", "id": 314, "properties": {"name": "VLRHT00", "desc": "中山北路一段107號前"}, "geometry": {"type": "Point", "coordinates": [121.522044, 25.05116]}}, {"type": "Feature", "id": 315, "properties": {"name": "VLBHN00", "desc": "中山北路一段33巷口"}, "geometry": {"type": "Point", "coordinates": [121.521093, 25.048951000000002]}}, {"type": "Feature", "id": 316, "properties": {"name": "VNLHV00", "desc": "中山北路二段113號前"}, "geometry": {"type": "Point", "coordinates": [121.522947, 25.060707999999998]}}, {"type": "Feature", "id": 317, "properties": {"name": "VQFHV41", "desc": "中山北路三段51號前"}, "geometry": {"type": "Point", "coordinates": [121.52276, 25.068202]}}, {"type": "Feature", "id": 318, "properties": {"name": "VSVI940", "desc": "中山北路-通河街口(育樂中心對面)"}, "geometry": {"type": "Point", "coordinates": [121.525097, 25.082344]}}, {"type": "Feature", "id": 319, "properties": {"name": "VRNIF40", "desc": "中山北路-通河街口(劍潭青年活動中心旁)"}, "geometry": {"type": "Point", "coordinates": [121.524353, 25.079381]}}, {"type": "Feature", "id": 320, "properties": {"name": "VKVJB60", "desc": "長安東路一段42號前"}, "geometry": {"type": "Point", "coordinates": [121.527048, 25.048578]}}, {"type": "Feature", "id": 321, "properties": {"name": "VMDL820", "desc": "長春路138號前"}, "geometry": {"type": "Point", "coordinates": [121.531276, 25.05472]}}, {"type": "Feature", "id": 322, "properties": {"name": "VMEKD00", "desc": "長春路198號對面"}, "geometry": {"type": "Point", "coordinates": [121.535577, 25.054660000000002]}}, {"type": "Feature", "id": 323, "properties": {"name": "VMDL800", "desc": "長春路251號前"}, "geometry": {"type": "Point", "coordinates": [121.539859, 25.054662]}}, {"type": "Feature", "id": 324, "properties": {"name": "VMFIG20", "desc": "長春路34號對面人行道上"}, "geometry": {"type": "Point", "coordinates": [121.52513200000001, 25.054995]}}, {"type": "Feature", "id": 325, "properties": {"name": "VLRHT60", "desc": "南京東路1段34號中央分隔島(往西)"}, "geometry": {"type": "Point", "coordinates": [121.523857, 25.052204999999997]}}, {"type": "Feature", "id": 326, "properties": {"name": "VLRIF20", "desc": "南京東路1段34號中央分隔島(往東)"}, "geometry": {"type": "Point", "coordinates": [121.523853, 25.05213]}}, {"type": "Feature", "id": 327, "properties": {"name": "VLRJM60", "desc": "南京東路2段98號中央分隔島(往西)"}, "geometry": {"type": "Point", "coordinates": [121.531603, 25.052075]}}, {"type": "Feature", "id": 328, "properties": {"name": "VLRJX20", "desc": "南京東路2段98號中央分隔島(往東)"}, "geometry": {"type": "Point", "coordinates": [121.53159699999999, 25.051996]}}, {"type": "Feature", "id": 329, "properties": {"name": "VN5HV60", "desc": "民生西路24號前"}, "geometry": {"type": "Point", "coordinates": [121.52201200000002, 25.057778]}}, {"type": "Feature", "id": 330, "properties": {"name": "VN5HV61", "desc": "民生東路一段9號前"}, "geometry": {"type": "Point", "coordinates": [121.52341200000001, 25.058232999999998]}}, {"type": "Feature", "id": 331, "properties": {"name": "VN8PT60", "desc": "民生東路二段101號前"}, "geometry": {"type": "Point", "coordinates": [121.53083500000001, 25.058162]}}, {"type": "Feature", "id": 332, "properties": {"name": "VN5JX20", "desc": "民生東路二段149號前"}, "geometry": {"type": "Point", "coordinates": [121.535067, 25.058155]}}, {"type": "Feature", "id": 333, "properties": {"name": "VMZLI20", "desc": "民生東路三段65巷口"}, "geometry": {"type": "Point", "coordinates": [121.54172700000001, 25.058076999999997]}}, {"type": "Feature", "id": 334, "properties": {"name": "VQFHC20", "desc": "民族西路足球場14號門對面人行道上"}, "geometry": {"type": "Point", "coordinates": [121.521056, 25.068416]}}, {"type": "Feature", "id": 335, "properties": {"name": "VQEJF20", "desc": "民族東路166號前"}, "geometry": {"type": "Point", "coordinates": [121.52944099999999, 25.068296]}}, {"type": "Feature", "id": 336, "properties": {"name": "VQDLJ20", "desc": "民族東路436號前"}, "geometry": {"type": "Point", "coordinates": [121.539055, 25.068117]}}, {"type": "Feature", "id": 337, "properties": {"name": "VP6IG60", "desc": "民權東路一段68號前"}, "geometry": {"type": "Point", "coordinates": [121.525026, 25.062606]}}, {"type": "Feature", "id": 338, "properties": {"name": "VP5KR60", "desc": "民權東路二段160號前"}, "geometry": {"type": "Point", "coordinates": [121.53513500000001, 25.062379999999997]}}, {"type": "Feature", "id": 339, "properties": {"name": "VP6JY60", "desc": "民權東路二段54號前"}, "geometry": {"type": "Point", "coordinates": [121.530774, 25.062414]}}, {"type": "Feature", "id": 340, "properties": {"name": "VMZL961", "desc": "民權東路三段49號"}, "geometry": {"type": "Point", "coordinates": [121.5428, 25.06246667]}}, {"type": "Feature", "id": 341, "properties": {"name": "VQEUU60", "desc": "民權東路六段(中天電視對面)"}, "geometry": {"type": "Point", "coordinates": [121.583068, 25.068772]}}, {"type": "Feature", "id": 342, "properties": {"name": "VSQYA00", "desc": "金湖路268號前"}, "geometry": {"type": "Point", "coordinates": [121.60126899999999, 25.075434]}}, {"type": "Feature", "id": 343, "properties": {"name": "VT5QV00", "desc": "堤頂大道二段344號對面人行道"}, "geometry": {"type": "Point", "coordinates": [121.56346200000002, 25.079645000000003]}}, {"type": "Feature", "id": 344, "properties": {"name": "VSKTL00", "desc": "港墘路149號對面人行道上"}, "geometry": {"type": "Point", "coordinates": [121.575328, 25.077614]}}, {"type": "Feature", "id": 345, "properties": {"name": "VS9TE00", "desc": "港墘路219號前"}, "geometry": {"type": "Point", "coordinates": [121.573085, 25.074959]}}, {"type": "Feature", "id": 346, "properties": {"name": "VQRTE00", "desc": "舊宗路二段121巷口左側人行道上"}, "geometry": {"type": "Point", "coordinates": [121.574684, 25.069229]}}, {"type": "Feature", "id": 347, "properties": {"name": "VRPSV70", "desc": "舊宗路二段213巷口對面槽化島上"}, "geometry": {"type": "Point", "coordinates": [121.57276200000001, 25.073695999999998]}}, {"type": "Feature", "id": 348, "properties": {"name": "V6151C0", "desc": "舊宗路出城上匝道入口"}, "geometry": {"type": "Point", "coordinates": [121.583653, 25.058449]}}, {"type": "Feature", "id": 349, "properties": {"name": "V6330G0", "desc": "經貿舊宗"}, "geometry": {"type": "Point", "coordinates": [121.61446299999999, 25.063563000000002]}}, {"type": "Feature", "id": 350, "properties": {"name": "VF9M500", "desc": "自強隧道中段"}, "geometry": {"type": "Point", "coordinates": [121.5491278, 25.09181667]}}, {"type": "Feature", "id": 351, "properties": {"name": "V6340G0", "desc": "舊宗堤頂"}, "geometry": {"type": "Point", "coordinates": [121.585074, 25.059285]}}, {"type": "Feature", "id": 352, "properties": {"name": "V6160C1", "desc": "舊宗經貿"}, "geometry": {"type": "Point", "coordinates": [121.591197, 25.060714]}}, {"type": "Feature", "id": 353, "properties": {"name": "VQKWL60", "desc": "民權東路六段(防災科學教育館對面)"}, "geometry": {"type": "Point", "coordinates": [121.589878, 25.068872]}}, {"type": "Feature", "id": 354, "properties": {"name": "VQKWL61", "desc": "民權東路六段203巷口往西30M"}, "geometry": {"type": "Point", "coordinates": [121.600575, 25.067213]}}, {"type": "Feature", "id": 355, "properties": {"name": "VS6TI00", "desc": "瑞光路295號前"}, "geometry": {"type": "Point", "coordinates": [121.576241, 25.07566]}}, {"type": "Feature", "id": 356, "properties": {"name": "VSNRE00", "desc": "瑞光路390號車道出口對面人行道上"}, "geometry": {"type": "Point", "coordinates": [121.57162199999999, 25.077935]}}, {"type": "Feature", "id": 357, "properties": {"name": "VRGUF00", "desc": "瑞光路與瑞光路120巷1-20號(嘉新尊皇)大門對面人行道"}, "geometry": {"type": "Point", "coordinates": [121.58037900000001, 25.07252]}}, {"type": "Feature", "id": 358, "properties": {"name": "VSDPM60", "desc": "樂群一路與基湖路口往西約140公尺(堤防里程15K+750)"}, "geometry": {"type": "Point", "coordinates": [121.56156299999999, 25.076159]}}, {"type": "Feature", "id": 359, "properties": {"name": "VQ6WK40", "desc": "成功路2段312巷(單號)對面"}, "geometry": {"type": "Point", "coordinates": [121.590524, 25.067181]}}, {"type": "Feature", "id": 360, "properties": {"name": "VQKWL40", "desc": "成功路二段373號前"}, "geometry": {"type": "Point", "coordinates": [121.58990700000001, 25.070912]}}, {"type": "Feature", "id": 361, "properties": {"name": "VQKWL00", "desc": "成功路二段380號旁"}, "geometry": {"type": "Point", "coordinates": [121.589648, 25.07057]}}, {"type": "Feature", "id": 362, "properties": {"name": "VSPRA40", "desc": "基湖路39號前"}, "geometry": {"type": "Point", "coordinates": [121.564423, 25.079642]}}, {"type": "Feature", "id": 363, "properties": {"name": "VU9NA40", "desc": "自強隧道中段"}, "geometry": {"type": "Point", "coordinates": [121.5488722, 25.08948611]}}, {"type": "Feature", "id": 364, "properties": {"name": "VMQ4C40", "desc": "三重路19-4號對面人行道上"}, "geometry": {"type": "Point", "coordinates": [121.614052, 25.056748000000002]}}, {"type": "Feature", "id": 365, "properties": {"name": "VMLXB00", "desc": "向陽路168號(首都客運停車場右側)"}, "geometry": {"type": "Point", "coordinates": [121.59419399999999, 25.055367]}}, {"type": "Feature", "id": 366, "properties": {"name": "VNF3G20", "desc": "重陽路366號前"}, "geometry": {"type": "Point", "coordinates": [121.59702, 25.055689]}}, {"type": "Feature", "id": 367, "properties": {"name": "VND3C20", "desc": "重陽路66號前"}, "geometry": {"type": "Point", "coordinates": [121.608799, 25.058629999999997]}}, {"type": "Feature", "id": 368, "properties": {"name": "V6180A0", "desc": "二高"}, "geometry": {"type": "Point", "coordinates": [121.61796399999999, 25.062013]}}, {"type": "Feature", "id": 369, "properties": {"name": "VQGGJ20", "desc": "民族西路179號前"}, "geometry": {"type": "Point", "coordinates": [121.514407, 25.068755]}}, {"type": "Feature", "id": 370, "properties": {"name": "VP8GX40", "desc": "承德路二段188號前"}, "geometry": {"type": "Point", "coordinates": [121.51780600000001, 25.061494]}}, {"type": "Feature", "id": 371, "properties": {"name": "VMQGX40", "desc": "承德路二段73號前"}, "geometry": {"type": "Point", "coordinates": [121.518069, 25.055679]}}, {"type": "Feature", "id": 372, "properties": {"name": "VP8GX00", "desc": "承德路三段52號前"}, "geometry": {"type": "Point", "coordinates": [121.517899, 25.064888]}}, {"type": "Feature", "id": 373, "properties": {"name": "VQGFY41", "desc": "重慶北三段250號之3"}, "geometry": {"type": "Point", "coordinates": [121.513545, 25.071176]}}, {"type": "Feature", "id": 374, "properties": {"name": "VLY4920", "desc": "忠孝東路七段487巷對面"}, "geometry": {"type": "Point", "coordinates": [121.61141699999999, 25.052556]}}, {"type": "Feature", "id": 375, "properties": {"name": "VLV3D60", "desc": "忠孝東路七段台電481號前新立桿"}, "geometry": {"type": "Point", "coordinates": [121.611194, 25.052639000000003]}}, {"type": "Feature", "id": 376, "properties": {"name": "VLEWX20", "desc": "忠孝東路六段378號前"}, "geometry": {"type": "Point", "coordinates": [121.59213600000001, 25.049931]}}, {"type": "Feature", "id": 377, "properties": {"name": "VKCUX20", "desc": "忠孝東路六段40號前"}, "geometry": {"type": "Point", "coordinates": [121.583048, 25.045804999999998]}}, {"type": "Feature", "id": 378, "properties": {"name": "VKP4L00", "desc": "研究院路2段35號前"}, "geometry": {"type": "Point", "coordinates": [121.615167, 25.045685]}}, {"type": "Feature", "id": 379, "properties": {"name": "VKE4M40", "desc": "研究院路2段40號前"}, "geometry": {"type": "Point", "coordinates": [121.615249, 25.046406]}}, {"type": "Feature", "id": 380, "properties": {"name": "VJM4U00", "desc": "研究院路2段胡適公園前"}, "geometry": {"type": "Point", "coordinates": [121.617498, 25.040213]}}, {"type": "Feature", "id": 381, "properties": {"name": "VJT4T00", "desc": "研究院路2段胡適國小停車場前"}, "geometry": {"type": "Point", "coordinates": [121.61688600000001, 25.042825]}}, {"type": "Feature", "id": 382, "properties": {"name": "VHM3N40", "desc": "研究院路3段221號對面人行道上"}, "geometry": {"type": "Point", "coordinates": [121.611271, 25.033549]}}, {"type": "Feature", "id": 383, "properties": {"name": "VHX4E40", "desc": "研究院路3段37號對面人行道上"}, "geometry": {"type": "Point", "coordinates": [121.61596599999999, 25.035073]}}, {"type": "Feature", "id": 384, "properties": {"name": "VMUGG20", "desc": "民生西路249號前"}, "geometry": {"type": "Point", "coordinates": [121.51438799999998, 25.057181]}}, {"type": "Feature", "id": 385, "properties": {"name": "VMTG520", "desc": "民生西路290號前"}, "geometry": {"type": "Point", "coordinates": [121.512722, 25.056934]}}, {"type": "Feature", "id": 386, "properties": {"name": "VMXH820", "desc": "民生西路77號前"}, "geometry": {"type": "Point", "coordinates": [121.51943500000002, 25.057696]}}, {"type": "Feature", "id": 387, "properties": {"name": "VLKGF40", "desc": "長安西路158號前"}, "geometry": {"type": "Point", "coordinates": [121.516038, 25.051091]}}, {"type": "Feature", "id": 388, "properties": {"name": "VLTEQ40", "desc": "長安西路287號前"}, "geometry": {"type": "Point", "coordinates": [121.509293, 25.052232999999998]}}, {"type": "Feature", "id": 389, "properties": {"name": "VM7FI60", "desc": "南京西路205號前"}, "geometry": {"type": "Point", "coordinates": [121.51100500000001, 25.053907000000002]}}, {"type": "Feature", "id": 390, "properties": {"name": "VM6GJ00", "desc": "南京西路228號前"}, "geometry": {"type": "Point", "coordinates": [121.516236, 25.053473]}}, {"type": "Feature", "id": 391, "properties": {"name": "VLXFX20", "desc": "鄭州路81號對面橋下"}, "geometry": {"type": "Point", "coordinates": [121.511958, 25.049623999999998]}}, {"type": "Feature", "id": 392, "properties": {"name": "VIQDB00", "desc": "桂林路136號對面(華西公園前)"}, "geometry": {"type": "Point", "coordinates": [121.49869299999999, 25.038574]}}, {"type": "Feature", "id": 393, "properties": {"name": "V5080A0", "desc": "市民下與終點端"}, "geometry": {"type": "Point", "coordinates": [121.507469, 25.054469]}}, {"type": "Feature", "id": 394, "properties": {"name": "VG7EQ00", "desc": "中華路二段386號前"}, "geometry": {"type": "Point", "coordinates": [121.50498400000001, 25.028631]}}, {"type": "Feature", "id": 395, "properties": {"name": "VJPEI60", "desc": "成都路96號前"}, "geometry": {"type": "Point", "coordinates": [121.503904, 25.043132999999997]}}, {"type": "Feature", "id": 396, "properties": {"name": "VGKCG40", "desc": "西園路2段68號前"}, "geometry": {"type": "Point", "coordinates": [121.49699, 25.031664000000003]}}, {"type": "Feature", "id": 397, "properties": {"name": "VGKCG20", "desc": "西園路二段207號前"}, "geometry": {"type": "Point", "coordinates": [121.49403899999999, 25.027169]}}, {"type": "Feature", "id": 398, "properties": {"name": "VKJEP40", "desc": "西寧南路與洛陽街口"}, "geometry": {"type": "Point", "coordinates": [121.50740900000001, 25.047273999999998]}}, {"type": "Feature", "id": 399, "properties": {"name": "VHZC820", "desc": "和平西路三段230號對面人行道上"}, "geometry": {"type": "Point", "coordinates": [121.49596499999998, 25.035549]}}, {"type": "Feature", "id": 400, "properties": {"name": "VKXET20", "desc": "忠孝西路二段34號前"}, "geometry": {"type": "Point", "coordinates": [121.51508700000001, 25.046632000000002]}}, {"type": "Feature", "id": 401, "properties": {"name": "VIME560", "desc": "桂林路22號前"}, "geometry": {"type": "Point", "coordinates": [121.505775, 25.037692]}}, {"type": "Feature", "id": 402, "properties": {"name": "VIME520", "desc": "桂林路49號前"}, "geometry": {"type": "Point", "coordinates": [121.504102, 25.038104]}}, {"type": "Feature", "id": 403, "properties": {"name": "V5060B0", "desc": "華江橋上與貴陽街下"}, "geometry": {"type": "Point", "coordinates": [121.49869199999999, 25.04074]}}, {"type": "Feature", "id": 404, "properties": {"name": "V50C2A0", "desc": "離出口匝道鼻端下游50公尺"}, "geometry": {"type": "Point", "coordinates": [121.49947, 25.041992999999998]}}, {"type": "Feature", "id": 405, "properties": {"name": "VGIBX60", "desc": "西藏路261號前"}, "geometry": {"type": "Point", "coordinates": [121.49349, 25.028561]}}, {"type": "Feature", "id": 406, "properties": {"name": "VGYER20", "desc": "西藏路33號前"}, "geometry": {"type": "Point", "coordinates": [121.506478, 25.030521]}}, {"type": "Feature", "id": 407, "properties": {"name": "VGKCG60", "desc": "西藏路424號對面人行道上"}, "geometry": {"type": "Point", "coordinates": [121.49733700000002, 25.02927]}}, {"type": "Feature", "id": 408, "properties": {"name": "VH7E720", "desc": "莒光路219號前"}, "geometry": {"type": "Point", "coordinates": [121.501328, 25.031081]}}, {"type": "Feature", "id": 409, "properties": {"name": "VH6CN60", "desc": "莒光路282號對面人行道"}, "geometry": {"type": "Point", "coordinates": [121.498772, 25.03108]}}, {"type": "Feature", "id": 410, "properties": {"name": "VH6DG00", "desc": "萬大路97號前"}, "geometry": {"type": "Point", "coordinates": [121.500353, 25.030163]}}, {"type": "Feature", "id": 411, "properties": {"name": "VH9H820", "desc": "艋舺大道389號前槽化島上"}, "geometry": {"type": "Point", "coordinates": [121.494075, 25.031159]}}, {"type": "Feature", "id": 412, "properties": {"name": "VGBBW60", "desc": "艋舺大道389號前槽化島上"}, "geometry": {"type": "Point", "coordinates": [121.494075, 25.031159]}}, {"type": "Feature", "id": 413, "properties": {"name": "VHPEB20", "desc": "艋舺大道76號前"}, "geometry": {"type": "Point", "coordinates": [121.5033, 25.033466]}}, {"type": "Feature", "id": 414, "properties": {"name": "V42E2E0", "desc": "離金門街35巷下游約25公尺"}, "geometry": {"type": "Point", "coordinates": [121.516609, 25.021829]}}, {"type": "Feature", "id": 415, "properties": {"name": "V4261E0", "desc": "泉州街入口匝道起點"}, "geometry": {"type": "Point", "coordinates": [121.511246, 25.023661999999998]}}, {"type": "Feature", "id": 416, "properties": {"name": "V42F2E0", "desc": "離出口匝道鼻端下游20公尺"}, "geometry": {"type": "Point", "coordinates": [121.5008, 25.018271]}}, {"type": "Feature", "id": 417, "properties": {"name": "V4231C0", "desc": "富民街入口匝道起點"}, "geometry": {"type": "Point", "coordinates": [121.496077, 25.016517999999998]}}, {"type": "Feature", "id": 418, "properties": {"name": "V4081G0", "desc": "離入口匝道鼻端上游200公尺"}, "geometry": {"type": "Point", "coordinates": [121.49293700000001, 25.019074]}}, {"type": "Feature", "id": 419, "properties": {"name": "V5050A0", "desc": "西園路與華江橋上匝道"}, "geometry": {"type": "Point", "coordinates": [121.492492, 25.036852]}}, {"type": "Feature", "id": 420, "properties": {"name": "VNZ4641", "desc": "三重路69號（南湖大橋-經貿二路）"}, "geometry": {"type": "Point", "coordinates": [121.61386100000001, 25.060972]}}, {"type": "Feature", "id": 421, "properties": {"name": "VLXZ720", "desc": "向陽路-南港車站間  路段間市民大道向陽路東側"}, "geometry": {"type": "Point", "coordinates": [121.5971778, 25.05193889]}}, {"type": "Feature", "id": 422, "properties": {"name": "VLNX920", "desc": "東新街-昆陽街  路段間市民大道昆陽街西側"}, "geometry": {"type": "Point", "coordinates": [121.59074720000001, 25.05082778]}}, {"type": "Feature", "id": 423, "properties": {"name": "VMV4U41", "desc": "經貿二路88巷口往南26M處(附掛路燈)"}, "geometry": {"type": "Point", "coordinates": [121.616532, 25.057217]}}, {"type": "Feature", "id": 424, "properties": {"name": "VMAZC60", "desc": "南港路二段126號前"}, "geometry": {"type": "Point", "coordinates": [121.601694, 25.0535]}}, {"type": "Feature", "id": 425, "properties": {"name": "VMBWS20", "desc": "南港路三段266號對面人行道上"}, "geometry": {"type": "Point", "coordinates": [121.583991, 25.052274]}}, {"type": "Feature", "id": 426, "properties": {"name": "VJUDT20", "desc": "中興橋(成都路與康定路口)(附掛門架)"}, "geometry": {"type": "Point", "coordinates": [121.501852, 25.04305]}}, {"type": "Feature", "id": 427, "properties": {"name": "VENCU40", "desc": "華中橋出城(萬大路)-萬大路472號中央分隔島號誌桿"}, "geometry": {"type": "Point", "coordinates": [121.497778, 25.020129]}}, {"type": "Feature", "id": 428, "properties": {"name": "VISCI20", "desc": "華江橋(靠和平西路三段392號橋上)(附掛門架)"}, "geometry": {"type": "Point", "coordinates": [121.49091200000001, 25.035548000000002]}}, {"type": "Feature", "id": 429, "properties": {"name": "VGBBW20", "desc": "華翠橋(艋舺大道與長順街口)(附掛門架)"}, "geometry": {"type": "Point", "coordinates": [121.492772, 25.029989999999998]}}, {"type": "Feature", "id": 430, "properties": {"name": "VGIA660", "desc": "萬板橋橋上入城門架(環快上方)"}, "geometry": {"type": "Point", "coordinates": [121.488201, 25.030301]}}, {"type": "Feature", "id": 431, "properties": {"name": "VGKBM20", "desc": "萬板橋橋上出城門架(環快上方)"}, "geometry": {"type": "Point", "coordinates": [121.48803600000001, 25.030509]}}, {"type": "Feature", "id": 432, "properties": {"name": "VP8GI20", "desc": "臺北橋(民權西路與大龍街口)(附掛門架)"}, "geometry": {"type": "Point", "coordinates": [121.515996, 25.062412]}}, {"type": "Feature", "id": 433, "properties": {"name": "VP8GI60", "desc": "民權西路127號門口路燈桿"}, "geometry": {"type": "Point", "coordinates": [121.5173028, 25.06303889]}}, {"type": "Feature", "id": 434, "properties": {"name": "VN8GX40", "desc": "承德路二段142號前"}, "geometry": {"type": "Point", "coordinates": [121.5181028, 25.05946111]}}, {"type": "Feature", "id": 435, "properties": {"name": "VP8GX42", "desc": "承德路三段22號前"}, "geometry": {"type": "Point", "coordinates": [121.51819170000002, 25.06414722]}}, {"type": "Feature", "id": 436, "properties": {"name": "VQGFY01", "desc": "重慶北路三段124號"}, "geometry": {"type": "Point", "coordinates": [121.5136361, 25.06736111]}}, {"type": "Feature", "id": 437, "properties": {"name": "V5250E0", "desc": "起點端至忠孝橋下匝道"}, "geometry": {"type": "Point", "coordinates": [121.506522, 25.050717000000002]}}, {"type": "Feature", "id": 438, "properties": {"name": "V52J2E0", "desc": "出口匝道鼻端處"}, "geometry": {"type": "Point", "coordinates": [121.502816, 25.046132]}}, {"type": "Feature", "id": 439, "properties": {"name": "V5070A2", "desc": "貴陽街下與洛陽下 離峨嵋街下游30公尺"}, "geometry": {"type": "Point", "coordinates": [121.50544, 25.048021]}}, {"type": "Feature", "id": 440, "properties": {"name": "V1290E0", "desc": "和平下與辛亥下匝道"}, "geometry": {"type": "Point", "coordinates": [121.53784499999999, 25.033842]}}, {"type": "Feature", "id": 441, "properties": {"name": "V1010A0", "desc": "辛亥上與信義上匝道"}, "geometry": {"type": "Point", "coordinates": [121.532018, 25.02216]}}, {"type": "Feature", "id": 442, "properties": {"name": "V1010A1", "desc": "辛亥上與信義上匝道"}, "geometry": {"type": "Point", "coordinates": [121.537318, 25.026459]}}, {"type": "Feature", "id": 443, "properties": {"name": "V1280E0", "desc": "信義下與和平下匝道"}, "geometry": {"type": "Point", "coordinates": [121.538247, 25.037325]}}, {"type": "Feature", "id": 444, "properties": {"name": "V3310G0", "desc": "建高銜接處至辛亥路上匝道"}, "geometry": {"type": "Point", "coordinates": [121.532522, 25.021998]}}, {"type": "Feature", "id": 445, "properties": {"name": "V1001B0", "desc": "辛亥下匝道與銜接建高入口"}, "geometry": {"type": "Point", "coordinates": [121.53799599999999, 25.027576]}}, {"type": "Feature", "id": 446, "properties": {"name": "V12G2E0", "desc": "辛亥路出口匝道"}, "geometry": {"type": "Point", "coordinates": [121.53796899999999, 25.023604000000002]}}, {"type": "Feature", "id": 447, "properties": {"name": "V3120C0", "desc": "往北起點端至辛亥路下匝道"}, "geometry": {"type": "Point", "coordinates": [121.53796899999999, 25.023604000000002]}}, {"type": "Feature", "id": 448, "properties": {"name": "V9011A0", "desc": "臺北聯絡道0+060(東往西入口匝道)"}, "geometry": {"type": "Point", "coordinates": [121.58191599999999, 25.005319]}}, {"type": "Feature", "id": 449, "properties": {"name": "VMQMV00", "desc": "復興北路168號前"}, "geometry": {"type": "Point", "coordinates": [121.54368000000001, 25.0537]}}, {"type": "Feature", "id": 450, "properties": {"name": "VM010A2", "desc": "復興北路隧道東側隧道頂板二車道主線0K+740公尺處"}, "geometry": {"type": "Point", "coordinates": [121.54496599999999, 25.068872]}}, {"type": "Feature", "id": 451, "properties": {"name": "VM210E2", "desc": "復興北路隧道西側隧道頂板二車道主線0K+740公尺處"}, "geometry": {"type": "Point", "coordinates": [121.543566, 25.070429999999998]}}, {"type": "Feature", "id": 452, "properties": {"name": "VXPHLA0", "desc": "福國出口匝道"}, "geometry": {"type": "Point", "coordinates": [121.49896399999999, 25.100659]}}, {"type": "Feature", "id": 453, "properties": {"name": "VXPHLE0", "desc": "福國路下匝道"}, "geometry": {"type": "Point", "coordinates": [121.49891699999999, 25.103638]}}, {"type": "Feature", "id": 454, "properties": {"name": "V9060A0", "desc": "信義支線隧道外3+880"}, "geometry": {"type": "Point", "coordinates": [121.57209099999999, 25.03161]}}, {"type": "Feature", "id": 455, "properties": {"name": "V9230A1", "desc": "信義支線隧道內3+490"}, "geometry": {"type": "Point", "coordinates": [121.571226, 25.028725]}}, {"type": "Feature", "id": 456, "properties": {"name": "V9050A0", "desc": "信義支線隧道內2+920"}, "geometry": {"type": "Point", "coordinates": [121.57623999999998, 25.02458]}}, {"type": "Feature", "id": 457, "properties": {"name": "V8040A0", "desc": "北投13號下匝道至出口處(高架式車輛偵測器)北上車道 3K+425(終端控制箱位於橋墩地面)"}, "geometry": {"type": "Point", "coordinates": [121.498621, 25.111403]}}, {"type": "Feature", "id": 458, "properties": {"name": "V9030A2", "desc": "信義支線隧道內2+020"}, "geometry": {"type": "Point", "coordinates": [121.57951399999999, 25.01701]}}, {"type": "Feature", "id": 459, "properties": {"name": "V9250A2", "desc": "信義支線隧道內1+950"}, "geometry": {"type": "Point", "coordinates": [121.57856899999999, 25.016175]}}, {"type": "Feature", "id": 460, "properties": {"name": "V4010A0", "desc": "離中正路下游約200公尺"}, "geometry": {"type": "Point", "coordinates": [121.535385, 25.00358]}}, {"type": "Feature", "id": 461, "properties": {"name": "V4040H1", "desc": "離永福橋上游50公尺"}, "geometry": {"type": "Point", "coordinates": [121.525659, 25.015829]}}, {"type": "Feature", "id": 462, "properties": {"name": "V4230B0", "desc": "離富民街上游60公尺"}, "geometry": {"type": "Point", "coordinates": [121.500777, 25.017995000000003]}}, {"type": "Feature", "id": 463, "properties": {"name": "V42A0D0", "desc": "離汀州路三段24巷上游約48公尺"}, "geometry": {"type": "Point", "coordinates": [121.53088500000001, 25.009997]}}, {"type": "Feature", "id": 464, "properties": {"name": "V42C0E0", "desc": "溪州街123巷口(上層)"}, "geometry": {"type": "Point", "coordinates": [121.533413, 24.992048999999998]}}, {"type": "Feature", "id": 465, "properties": {"name": "V52A0E0", "desc": "桂林路下與華江橋下"}, "geometry": {"type": "Point", "coordinates": [121.48836000000001, 25.03172]}}, {"type": "Feature", "id": 466, "properties": {"name": "V52C0E0", "desc": "華江橋下與西藏路下"}, "geometry": {"type": "Point", "coordinates": [121.48974799999999, 25.026912]}}, {"type": "Feature", "id": 467, "properties": {"name": "V52D0E0", "desc": "離西園路72巷下游約55公尺"}, "geometry": {"type": "Point", "coordinates": [121.491749, 25.021832]}}, {"type": "Feature", "id": 468, "properties": {"name": "V4210D0", "desc": "離德昌街下游120公尺"}, "geometry": {"type": "Point", "coordinates": [121.49569, 25.016384]}}, {"type": "Feature", "id": 469, "properties": {"name": "V2310G0", "desc": "樂業街與敦化上匝道"}, "geometry": {"type": "Point", "coordinates": [121.54123999999999, 25.014907]}}, {"type": "Feature", "id": 470, "properties": {"name": "V2330G0", "desc": "匝道出口端.銜接福和橋處"}, "geometry": {"type": "Point", "coordinates": [121.535436, 24.999326999999997]}}, {"type": "Feature", "id": 471, "properties": {"name": "V42B1D0", "desc": "離福和橋往水快匝道鼻端下游30公尺"}, "geometry": {"type": "Point", "coordinates": [121.533911, 25.008713]}}, {"type": "Feature", "id": 472, "properties": {"name": "V4031A0", "desc": "離往北往南方向岔出點下游30公尺"}, "geometry": {"type": "Point", "coordinates": [121.52666200000002, 25.014020000000002]}}, {"type": "Feature", "id": 473, "properties": {"name": "V4271C0", "desc": "中正橋上匝道入口處"}, "geometry": {"type": "Point", "coordinates": [121.51624699999999, 25.023076]}}, {"type": "Feature", "id": 474, "properties": {"name": "V42B1E0", "desc": "基高往水快匝道"}, "geometry": {"type": "Point", "coordinates": [121.540353, 25.013718]}}, {"type": "Feature", "id": 475, "properties": {"name": "V42K2C1", "desc": "離出口匝道鼻端下游100公尺"}, "geometry": {"type": "Point", "coordinates": [121.48961000000001, 25.027247]}}, {"type": "Feature", "id": 476, "properties": {"name": "V52C2E0", "desc": "離西藏路下游125公尺"}, "geometry": {"type": "Point", "coordinates": [121.489108, 25.035464]}}, {"type": "Feature", "id": 477, "properties": {"name": "V52H2E0", "desc": "離匝道端下游約75公尺"}, "geometry": {"type": "Point", "coordinates": [121.49663400000001, 25.039185]}}, {"type": "Feature", "id": 478, "properties": {"name": "V2321G0", "desc": "羅斯福路上匝道"}, "geometry": {"type": "Point", "coordinates": [121.543824, 25.016685]}}, {"type": "Feature", "id": 479, "properties": {"name": "V52I2E0", "desc": "離出口匝道鼻端下游100公尺"}, "geometry": {"type": "Point", "coordinates": [121.500331, 25.044129]}}, {"type": "Feature", "id": 480, "properties": {"name": "V52B1E0", "desc": "華江橋入口匝道起點"}, "geometry": {"type": "Point", "coordinates": [121.49569, 25.016384]}}, {"type": "Feature", "id": 481, "properties": {"name": "V2311G0", "desc": "敦化南路上匝道"}, "geometry": {"type": "Point", "coordinates": [121.538941, 25.012468]}}, {"type": "Feature", "id": 482, "properties": {"name": "V2PK0E0", "desc": "離出口匝道鼻端下游50公尺"}, "geometry": {"type": "Point", "coordinates": [121.537026, 24.998103]}}, {"type": "Feature", "id": 483, "properties": {"name": "V4011A0", "desc": "景美入口匝道起點"}, "geometry": {"type": "Point", "coordinates": [121.53410900000002, 25.006184]}}, {"type": "Feature", "id": 484, "properties": {"name": "V2101B0", "desc": "基高出口匝道"}, "geometry": {"type": "Point", "coordinates": [121.533911, 25.008713]}}, {"type": "Feature", "id": 485, "properties": {"name": "V1050A0", "desc": "南京下與南京上匝道"}, "geometry": {"type": "Point", "coordinates": [121.53721399999999, 25.057353]}}, {"type": "Feature", "id": 486, "properties": {"name": "V1060A0", "desc": "南京上與民權下匝道"}, "geometry": {"type": "Point", "coordinates": [121.53646499999999, 25.04924]}}, {"type": "Feature", "id": 487, "properties": {"name": "V1070A1", "desc": "民權下與濱江下匝道"}, "geometry": {"type": "Point", "coordinates": [121.536576, 25.056379999999997]}}, {"type": "Feature", "id": 488, "properties": {"name": "V1080A0", "desc": "濱江下與圓山出口端"}, "geometry": {"type": "Point", "coordinates": [121.536827, 25.063963]}}, {"type": "Feature", "id": 489, "properties": {"name": "V1020A1", "desc": "信義上與仁愛上匝道"}, "geometry": {"type": "Point", "coordinates": [121.53750900000001, 25.034087]}}, {"type": "Feature", "id": 490, "properties": {"name": "V1030A0", "desc": "仁愛上與忠孝上匝道"}, "geometry": {"type": "Point", "coordinates": [121.53758, 25.039051999999998]}}, {"type": "Feature", "id": 491, "properties": {"name": "V1040A0", "desc": "忠孝上與長安下匝道"}, "geometry": {"type": "Point", "coordinates": [121.536348, 25.042866]}}, {"type": "Feature", "id": 492, "properties": {"name": "V3320G0", "desc": "辛亥路入口匝道下游"}, "geometry": {"type": "Point", "coordinates": [121.53049399999999, 25.02038]}}, {"type": "Feature", "id": 493, "properties": {"name": "V1220E0", "desc": "民權下與民權上匝道"}, "geometry": {"type": "Point", "coordinates": [121.53321799999999, 25.068436]}}, {"type": "Feature", "id": 494, "properties": {"name": "V1230E0", "desc": "民權上與長春上匝道"}, "geometry": {"type": "Point", "coordinates": [121.537301, 25.063663000000002]}}, {"type": "Feature", "id": 495, "properties": {"name": "V1250E0", "desc": "長安上與忠孝下匝道"}, "geometry": {"type": "Point", "coordinates": [121.53699099999999, 25.047107]}}, {"type": "Feature", "id": 496, "properties": {"name": "V3132C0", "desc": "辛亥路出口匝道"}, "geometry": {"type": "Point", "coordinates": [121.53374199999999, 25.022219]}}, {"type": "Feature", "id": 497, "properties": {"name": "V1051A1", "desc": "南京上匝道"}, "geometry": {"type": "Point", "coordinates": [121.537054, 25.052406]}}, {"type": "Feature", "id": 498, "properties": {"name": "V1231E0", "desc": "長春路上匝道"}, "geometry": {"type": "Point", "coordinates": [121.536526, 25.053979]}}, {"type": "Feature", "id": 499, "properties": {"name": "V12B2E0", "desc": "民權東路出口匝道"}, "geometry": {"type": "Point", "coordinates": [121.537302, 25.022857000000002]}}, {"type": "Feature", "id": 500, "properties": {"name": "V12E2E0", "desc": "信義路出口匝道"}, "geometry": {"type": "Point", "coordinates": [121.53742199999999, 25.036796]}}, {"type": "Feature", "id": 501, "properties": {"name": "V12D2E0", "desc": "仁愛路出口匝道"}, "geometry": {"type": "Point", "coordinates": [121.537466, 25.040045000000003]}}, {"type": "Feature", "id": 502, "properties": {"name": "V1031A1", "desc": "忠孝東路上匝道"}, "geometry": {"type": "Point", "coordinates": [121.545533, 25.040122]}}, {"type": "Feature", "id": 503, "properties": {"name": "V6170C0", "desc": "經貿出入"}, "geometry": {"type": "Point", "coordinates": [121.61273600000001, 25.063191]}}, {"type": "Feature", "id": 504, "properties": {"name": "VEGCQ00", "desc": "華中橋(靠臺北市端)(附掛路燈桿)"}, "geometry": {"type": "Point", "coordinates": [121.496858, 25.018637]}}, {"type": "Feature", "id": 505, "properties": {"name": "V8220E1", "desc": "起點端至北投13號上匝道(南下中間段)南下車道 3K+175終端控制箱位於承德路7段401巷橋墩地面"}, "geometry": {"type": "Point", "coordinates": [121.499248, 25.114353]}}, {"type": "Feature", "id": 506, "properties": {"name": "VTEZS62", "desc": "0+125北側車道(一號隧道出口)"}, "geometry": {"type": "Point", "coordinates": [121.608003, 25.082151]}}, {"type": "Feature", "id": 507, "properties": {"name": "VTEZS61", "desc": "0+535北側車道(一號隧道內)"}, "geometry": {"type": "Point", "coordinates": [121.610523, 25.080533]}}, {"type": "Feature", "id": 508, "properties": {"name": "VSM4D61", "desc": "1+360北側車道(二號隧道內)"}, "geometry": {"type": "Point", "coordinates": [121.61741599999999, 25.079295000000002]}}, {"type": "Feature", "id": 509, "properties": {"name": "VSM4D60", "desc": "1+760北側車道(二號隧道內)"}, "geometry": {"type": "Point", "coordinates": [121.62131399999998, 25.079667]}}, {"type": "Feature", "id": 510, "properties": {"name": "VN0B0E0", "desc": "匝道入口處"}, "geometry": {"type": "Point", "coordinates": [121.53036100000001, 25.044167]}}, {"type": "Feature", "id": 511, "properties": {"name": "VN0B0E1", "desc": "離松江路38巷上游約35公尺"}, "geometry": {"type": "Point", "coordinates": [121.53108300000001, 25.046694]}}, {"type": "Feature", "id": 512, "properties": {"name": "VN0C0E0", "desc": "入口匝道起點"}, "geometry": {"type": "Point", "coordinates": [121.529278, 25.049194]}}, {"type": "Feature", "id": 513, "properties": {"name": "VN0C0E1", "desc": "離新生北路二段55巷上游約25公尺"}, "geometry": {"type": "Point", "coordinates": [121.52797199999999, 25.055444]}}, {"type": "Feature", "id": 514, "properties": {"name": "VN0E0E0", "desc": "入口匝道起點"}, "geometry": {"type": "Point", "coordinates": [121.52808300000001, 25.063582999999998]}}, {"type": "Feature", "id": 515, "properties": {"name": "VN0F0E0", "desc": "入口匝道起點"}, "geometry": {"type": "Point", "coordinates": [121.528056, 25.069000000000003]}}, {"type": "Feature", "id": 516, "properties": {"name": "VN2D0E0", "desc": "離市民大道下游約85公尺"}, "geometry": {"type": "Point", "coordinates": [121.530639, 25.046]}}, {"type": "Feature", "id": 517, "properties": {"name": "VN2D0E1", "desc": "入口匝道起點"}, "geometry": {"type": "Point", "coordinates": [121.529528, 25.047972]}}, {"type": "Feature", "id": 518, "properties": {"name": "VN2C0E0", "desc": "離林森北路119巷下游約30公尺"}, "geometry": {"type": "Point", "coordinates": [121.528056, 25.050860999999998]}}, {"type": "Feature", "id": 519, "properties": {"name": "VN2B0E0", "desc": "離新生北路二段62巷上游約5公尺"}, "geometry": {"type": "Point", "coordinates": [121.52744399999999, 25.056583]}}, {"type": "Feature", "id": 520, "properties": {"name": "VN2B0E1", "desc": "入口匝道起點"}, "geometry": {"type": "Point", "coordinates": [121.527833, 25.067611]}}, {"type": "Feature", "id": 521, "properties": {"name": "VN2A0E0", "desc": "離濱江街上游約73公尺"}, "geometry": {"type": "Point", "coordinates": [121.527194, 25.071832999999998]}}, {"type": "Feature", "id": 522, "properties": {"name": "VN0A0E0", "desc": "離八德路口東南端約15公尺"}, "geometry": {"type": "Point", "coordinates": [121.53013899999999, 25.0435]}}, {"type": "Feature", "id": 523, "properties": {"name": "VN0B0E2", "desc": "新生北路與市民大道路口東北端"}, "geometry": {"type": "Point", "coordinates": [121.530639, 25.046222]}}, {"type": "Feature", "id": 524, "properties": {"name": "VN0B0E3", "desc": "吉林路10巷上游5公尺"}, "geometry": {"type": "Point", "coordinates": [121.528578, 25.049492]}}, {"type": "Feature", "id": 525, "properties": {"name": "VN0C0E2", "desc": "離新生北路二段15巷上游約20公尺"}, "geometry": {"type": "Point", "coordinates": [121.528056, 25.052861]}}, {"type": "Feature", "id": 526, "properties": {"name": "VN0E0E1", "desc": "離新生北路三段11巷上游約6公尺"}, "geometry": {"type": "Point", "coordinates": [121.52811100000001, 25.0635]}}, {"type": "Feature", "id": 527, "properties": {"name": "VN0E0E2", "desc": "離民族東路上游約80公尺"}, "geometry": {"type": "Point", "coordinates": [121.52780600000001, 25.067611]}}, {"type": "Feature", "id": 528, "properties": {"name": "VN0F0E1", "desc": "離中山橋上游約170公尺"}, "geometry": {"type": "Point", "coordinates": [121.52724599999999, 25.071741]}}, {"type": "Feature", "id": 529, "properties": {"name": "VN2A0E1", "desc": "離中山橋下游約35公尺"}, "geometry": {"type": "Point", "coordinates": [121.52561100000001, 25.073639]}}, {"type": "Feature", "id": 530, "properties": {"name": "VN2B0E2", "desc": "新生北路三段84巷前方"}, "geometry": {"type": "Point", "coordinates": [121.527778, 25.067444000000002]}}, {"type": "Feature", "id": 531, "properties": {"name": "VN2B0E3", "desc": "離新生北路二段141巷下游約10公尺"}, "geometry": {"type": "Point", "coordinates": [121.527222, 25.062167000000002]}}, {"type": "Feature", "id": 532, "properties": {"name": "VN2C0E1", "desc": "新生北路二段28巷前"}, "geometry": {"type": "Point", "coordinates": [121.527056, 25.054056]}}, {"type": "Feature", "id": 533, "properties": {"name": "VN2C0E2", "desc": "離新生北路120巷下游約45公尺"}, "geometry": {"type": "Point", "coordinates": [121.528861, 25.049056]}}, {"type": "Feature", "id": 534, "properties": {"name": "VN2D0E2", "desc": "離市民大道上游約18公尺"}, "geometry": {"type": "Point", "coordinates": [121.53061100000001, 25.046889]}}, {"type": "Feature", "id": 535, "properties": {"name": "VN2E0E0", "desc": "八德路口西北端"}, "geometry": {"type": "Point", "coordinates": [121.52975, 25.044056]}}, {"type": "Feature", "id": 536, "properties": {"name": "V2LSS20", "desc": "木柵路四段29號前"}, "geometry": {"type": "Point", "coordinates": [121.57160800000001, 24.993713]}}, {"type": "Feature", "id": 537, "properties": {"name": "VAGPE40", "desc": "辛亥路5段53號前"}, "geometry": {"type": "Point", "coordinates": [121.55240800000001, 24.997495999999998]}}, {"type": "Feature", "id": 538, "properties": {"name": "VE4A420", "desc": "南港路二段120號對面人行道上"}, "geometry": {"type": "Point", "coordinates": [121.60185600000001, 25.053548000000003]}}, {"type": "Feature", "id": 539, "properties": {"name": "VHPBV00", "desc": "環河南路二段193號前"}, "geometry": {"type": "Point", "coordinates": [121.49191, 25.032466]}}, {"type": "Feature", "id": 540, "properties": {"name": "VJQEB00", "desc": "昆明街與洛陽街口"}, "geometry": {"type": "Point", "coordinates": [121.506302, 25.047964]}}, {"type": "Feature", "id": 541, "properties": {"name": "VL6IA60", "desc": "長安東路一段18號前"}, "geometry": {"type": "Point", "coordinates": [121.52386000000001, 25.049411]}}, {"type": "Feature", "id": 542, "properties": {"name": "VLGGY60", "desc": "長安西路88號對面人行道上"}, "geometry": {"type": "Point", "coordinates": [121.51913799999998, 25.050592]}}, {"type": "Feature", "id": 543, "properties": {"name": "VN7ST40", "desc": "塔悠路201號前"}, "geometry": {"type": "Point", "coordinates": [121.569093, 25.058363]}}, {"type": "Feature", "id": 544, "properties": {"name": "VSEMA00", "desc": "大直橋(明水路上方)(附掛閉路電視桿)"}, "geometry": {"type": "Point", "coordinates": [121.544468, 25.077215]}}, {"type": "Feature", "id": 545, "properties": {"name": "VXSLB20", "desc": "仰德大道一段與仰德大道二段口(附掛號誌燈桿)"}, "geometry": {"type": "Point", "coordinates": [121.53958, 25.101943]}}, {"type": "Feature", "id": 546, "properties": {"name": "VYLJ620", "desc": "忠誠路一段147巷對面人行道"}, "geometry": {"type": "Point", "coordinates": [121.529547, 25.106692000000002]}}, {"type": "Feature", "id": 547, "properties": {"name": "V4NJD00", "desc": "中山北路六段日僑學校"}, "geometry": {"type": "Point", "coordinates": [121.52891799999999, 25.11713]}}, {"type": "Feature", "id": 548, "properties": {"name": "VM64J20", "desc": "忠孝東路七段570號(消防栓旁)"}, "geometry": {"type": "Point", "coordinates": [121.613745, 25.052795]}}, {"type": "Feature", "id": 549, "properties": {"name": "V6160C3", "desc": "舊宗經貿"}, "geometry": {"type": "Point", "coordinates": [121.60203899999999, 25.058477]}}, {"type": "Feature", "id": 550, "properties": {"name": "V8020A0", "desc": "跨河段"}, "geometry": {"type": "Point", "coordinates": [121.499075, 25.101164]}}, {"type": "Feature", "id": 551, "properties": {"name": "V8030A0", "desc": "福國上匝道至北投13號下匝道"}, "geometry": {"type": "Point", "coordinates": [121.499082, 25.105245]}}, {"type": "Feature", "id": 552, "properties": {"name": "V8050A0", "desc": "大業路出口前"}, "geometry": {"type": "Point", "coordinates": [121.499554, 25.121403]}}, {"type": "Feature", "id": 553, "properties": {"name": "V8230E1", "desc": "北13福國"}, "geometry": {"type": "Point", "coordinates": [121.498727, 25.105832999999997]}}, {"type": "Feature", "id": 554, "properties": {"name": "V8240E0", "desc": "社中街至通河西街"}, "geometry": {"type": "Point", "coordinates": [121.49888100000001, 25.102158]}}, {"type": "Feature", "id": 555, "properties": {"name": "V1241E0", "desc": "長安東路上匝道"}, "geometry": {"type": "Point", "coordinates": [121.536492, 25.048436]}}, {"type": "Feature", "id": 556, "properties": {"name": "V6320G0", "desc": "南湖經貿"}, "geometry": {"type": "Point", "coordinates": [121.619496, 25.061213000000002]}}, {"type": "Feature", "id": 557, "properties": {"name": "V6171C1", "desc": "匝道平面"}, "geometry": {"type": "Point", "coordinates": [121.615976, 25.062934]}}, {"type": "Feature", "id": 558, "properties": {"name": "V5070A0", "desc": "洛陽下與市民下"}, "geometry": {"type": "Point", "coordinates": [121.50785800000001, 25.055073]}}, {"type": "Feature", "id": 559, "properties": {"name": "V5260E0", "desc": "忠孝橋下與忠孝橋上匝道"}, "geometry": {"type": "Point", "coordinates": [121.49588, 25.038998]}}, {"type": "Feature", "id": 560, "properties": {"name": "V2120C0", "desc": "辛亥下與敦化下"}, "geometry": {"type": "Point", "coordinates": [121.54746399999999, 25.019741]}}, {"type": "Feature", "id": 561, "properties": {"name": "V10D2A0", "desc": "民權出口匝道"}, "geometry": {"type": "Point", "coordinates": [121.537278, 25.060495]}}, {"type": "Feature", "id": 562, "properties": {"name": "V5261E0", "desc": "忠孝橋接環快往南方向入口匝道起點"}, "geometry": {"type": "Point", "coordinates": [121.50638700000002, 25.049192]}}, {"type": "Feature", "id": 563, "properties": {"name": "V5070A1", "desc": "貴陽街下與洛陽下 離長沙街二段上游100公尺"}, "geometry": {"type": "Point", "coordinates": [121.502078, 25.045017]}}, {"type": "Feature", "id": 564, "properties": {"name": "V10C0A0", "desc": "長安下與南京下匝道"}, "geometry": {"type": "Point", "coordinates": [121.536331, 25.045629]}}, {"type": "Feature", "id": 565, "properties": {"name": "V1270E0", "desc": "仁愛下與信義下匝道"}, "geometry": {"type": "Point", "coordinates": [121.537022, 25.042882000000002]}}, {"type": "Feature", "id": 566, "properties": {"name": "VLYGU40", "desc": "承德路一段77-1號前"}, "geometry": {"type": "Point", "coordinates": [121.51743, 25.052341000000002]}}, {"type": "Feature", "id": 567, "properties": {"name": "VPLKP40", "desc": "建國北路三段121號前"}, "geometry": {"type": "Point", "coordinates": [121.53563899999999, 25.066549]}}, {"type": "Feature", "id": 568, "properties": {"name": "VRTHD40", "desc": "承德路三段270號前"}, "geometry": {"type": "Point", "coordinates": [121.518997, 25.073605]}}, {"type": "Feature", "id": 569, "properties": {"name": "VTXQL00", "desc": "堤頂大道二段489-501號中間空地前"}, "geometry": {"type": "Point", "coordinates": [121.561444, 25.082813]}}, {"type": "Feature", "id": 570, "properties": {"name": "VPMSV40", "desc": "堤頂大道二段內湖污水處理場停車場出口右側"}, "geometry": {"type": "Point", "coordinates": [121.57241599999999, 25.067351000000002]}}, {"type": "Feature", "id": 571, "properties": {"name": "VLAFP60", "desc": "鄭州路81號對面橋下"}, "geometry": {"type": "Point", "coordinates": [121.51208899999999, 25.049976]}}, {"type": "Feature", "id": 572, "properties": {"name": "VNUNJ20", "desc": "民權東路三段142號對面人行道上"}, "geometry": {"type": "Point", "coordinates": [121.54681000000001, 25.062302]}}, {"type": "Feature", "id": 573, "properties": {"name": "VSWMR40", "desc": "北安路520號對面人行道"}, "geometry": {"type": "Point", "coordinates": [121.545819, 25.080036]}}, {"type": "Feature", "id": 574, "properties": {"name": "VYBIB00", "desc": "中山北路六段90號對面人行道上"}, "geometry": {"type": "Point", "coordinates": [121.524492, 25.104805]}}, {"type": "Feature", "id": 575, "properties": {"name": "VMZL960", "desc": "民生東路三段19號前"}, "geometry": {"type": "Point", "coordinates": [121.53813899999999, 25.058144]}}, {"type": "Feature", "id": 576, "properties": {"name": "VRPSV00", "desc": "堤頂大道二段與舊宗路二段路口槽化島"}, "geometry": {"type": "Point", "coordinates": [121.573094, 25.072503]}}, {"type": "Feature", "id": 577, "properties": {"name": "VZKPR20", "desc": "至善路二段431號對面人行道上"}, "geometry": {"type": "Point", "coordinates": [121.55743600000001, 25.108413]}}, {"type": "Feature", "id": 578, "properties": {"name": "VSGRX60", "desc": "堤頂大道二段177號前"}, "geometry": {"type": "Point", "coordinates": [121.570774, 25.076783]}}, {"type": "Feature", "id": 579, "properties": {"name": "VEUPN60", "desc": "和平東路三段425號前"}, "geometry": {"type": "Point", "coordinates": [121.557845, 25.019223999999998]}}, {"type": "Feature", "id": 580, "properties": {"name": "VFWBS00", "desc": "光復橋(靠西園路二段372巷橋上)(附掛路燈桿)"}, "geometry": {"type": "Point", "coordinates": [121.491464, 25.025074]}}, {"type": "Feature", "id": 581, "properties": {"name": "VHKQP20", "desc": "信義五段-莊敬路往東"}, "geometry": {"type": "Point", "coordinates": [121.560216, 25.032882999999998]}}, {"type": "Feature", "id": 582, "properties": {"name": "VIDDL00", "desc": "康定路279號前"}, "geometry": {"type": "Point", "coordinates": [121.501024, 25.034332]}}, {"type": "Feature", "id": 583, "properties": {"name": "VKZQW20", "desc": "八德路四段135號前"}, "geometry": {"type": "Point", "coordinates": [121.562072, 25.048775]}}, {"type": "Feature", "id": 584, "properties": {"name": "VLNPU40", "desc": "光復北路127號前"}, "geometry": {"type": "Point", "coordinates": [121.556925, 25.052395999999998]}}, {"type": "Feature", "id": 585, "properties": {"name": "VKVHI20", "desc": "市民大道一段與中山北路口往西146M處(橋下)"}, "geometry": {"type": "Point", "coordinates": [121.51900800000001, 25.048173000000002]}}, {"type": "Feature", "id": 586, "properties": {"name": "V0111C0", "desc": "市高西寧西側往東"}, "geometry": {"type": "Point", "coordinates": [121.516007, 25.048579]}}, {"type": "Feature", "id": 587, "properties": {"name": "V4291E0", "desc": "師大路入口匝道起點"}, "geometry": {"type": "Point", "coordinates": [121.522924, 25.020425]}}, {"type": "Feature", "id": 588, "properties": {"name": "V42B0D0", "desc": "離福和橋上游約200公尺"}, "geometry": {"type": "Point", "coordinates": [121.535353, 25.002966]}}, {"type": "Feature", "id": 589, "properties": {"name": "V5271E0", "desc": "匝道匯入主線鼻端處"}, "geometry": {"type": "Point", "coordinates": [121.501415, 25.045137]}}, {"type": "Feature", "id": 590, "properties": {"name": "V52C1E0", "desc": "環南市場入口匝道起點"}, "geometry": {"type": "Point", "coordinates": [121.489222, 25.029324]}}, {"type": "Feature", "id": 591, "properties": {"name": "V6320G1", "desc": "南湖經貿"}, "geometry": {"type": "Point", "coordinates": [121.6167, 25.062931]}}, {"type": "Feature", "id": 592, "properties": {"name": "V5261F0", "desc": "離入口匝道鼻端上游100公尺"}, "geometry": {"type": "Point", "coordinates": [121.50463700000002, 25.047744]}}, {"type": "Feature", "id": 593, "properties": {"name": "V0112A0", "desc": "出口匝道上與忠孝橋匝道交會處"}, "geometry": {"type": "Point", "coordinates": [121.50694299999999, 25.051907]}}, {"type": "Feature", "id": 594, "properties": {"name": "V1001A0", "desc": "辛亥路往北上匝道"}, "geometry": {"type": "Point", "coordinates": [121.53796899999999, 25.023604000000002]}},